{"type":"FeatureCollection","features":[{"type":"Feature","id":633,"geometry":{"type":"Point","coordinates":[-70.66779106412659,4.4944947420079933]},"properties":{"OBJECTID":633,"MRTAdmin":1,"MRTNomencl":"3MAT","MDANMNombr":"Cumaribo","DeNombre":"Vichada","FMaterializacion":1661126400000,"RedGeoAc_RedNacional_MRTMaterial":"IGAC y SGC","Latitud":"4° 29' 40,181\" N","Longitud":"70° 40' 4,048\" W","AlturaElip":"185,479","Divipola":"99773","Nota_Aclaratoria":"La estación pertenece a la Red Geodésica Nacional"}},{"type":"Feature","id":634,"geometry":{"type":"Point","coordinates":[-75.036367778498132,8.9352024978865394]},"properties":{"OBJECTID":634,"MRTAdmin":1,"MRTNomencl":"ABAD","MDANMNombr":"San Benito Abad","DeNombre":"Sucre","FMaterializacion":1732665600000,"RedGeoAc_RedNacional_MRTMaterial":"Instituto Geográfico Agustín Codazzi","Latitud":"8° 56' 6,729\" N","Longitud":"75° 2' 10,924\" W","AlturaElip":"20,543","Divipola":"70678","Nota_Aclaratoria":"La estación pertenece a la Red Geodésica Nacional"}},{"type":"Feature","id":635,"geometry":{"type":"Point","coordinates":[-74.126922263594921,4.6612355440524533]},"properties":{"OBJECTID":635,"MRTAdmin":3,"MRTNomencl":"ABCC","MDANMNombr":"Bogotá, D.C.","DeNombre":"Bogotá, D.C.","FMaterializacion":1227830400000,"RedGeoAc_RedNacional_MRTMaterial":"EAAB","Latitud":"4° 39' 40,448\" N","Longitud":"74° 7' 36,920\" W","AlturaElip":"2576,197","Divipola":"11001","Nota_Aclaratoria":"La estación pertenece a la Red Geodésica Nacional"}},{"type":"Feature","id":636,"geometry":{"type":"Point","coordinates":[-73.722330828203354,4.6379658064291656]},"properties":{"OBJECTID":636,"MRTAdmin":3,"MRTNomencl":"ABCH","MDANMNombr":"Fúquene","DeNombre":"Cundinamarca","FMaterializacion":1288396800000,"RedGeoAc_RedNacional_MRTMaterial":"EAAB","Latitud":"4° 38' 16,677\" N","Longitud":"73° 43' 20,391\" W","AlturaElip":"3157,268","Divipola":"25288","Nota_Aclaratoria":"La estación pertenece a la Red Geodésica Nacional"}},{"type":"Feature","id":637,"geometry":{"type":"Point","coordinates":[-74.099027090337657,4.4760105053705148]},"properties":{"OBJECTID":637,"MRTAdmin":3,"MRTNomencl":"ABDO","MDANMNombr":"Bogotá, D.C.","DeNombre":"Bogotá, D.C.","FMaterializacion":1604534400000,"RedGeoAc_RedNacional_MRTMaterial":"EAAB","Latitud":"4° 28' 33,638\" N","Longitud":"74° 5' 56,498\" W","AlturaElip":"2957,699","Divipola":"11001","Nota_Aclaratoria":"La estación pertenece a la Red Geodésica Nacional"}},{"type":"Feature","id":638,"geometry":{"type":"Point","coordinates":[-74.258548134435429,4.5680897911420946]},"properties":{"OBJECTID":638,"MRTAdmin":3,"MRTNomencl":"ABPC","MDANMNombr":"Bogotá, D.C.","DeNombre":"Bogotá, D.C.","FMaterializacion":1605052800000,"RedGeoAc_RedNacional_MRTMaterial":"EAAB","Latitud":"4° 34' 5,123\" N","Longitud":"74° 15' 30,773\" W","AlturaElip":"2577,878","Divipola":"11001","Nota_Aclaratoria":"La estación pertenece a la Red Geodésica Nacional"}},{"type":"Feature","id":639,"geometry":{"type":"Point","coordinates":[-74.09886813970725,4.4765677476091472]},"properties":{"OBJECTID":639,"MRTAdmin":3,"MRTNomencl":"ABPD","MDANMNombr":"Bogotá, D.C.","DeNombre":"Bogotá, D.C.","FMaterializacion":1227571200000,"RedGeoAc_RedNacional_MRTMaterial":"EAAB","Latitud":"4° 28' 35,644\" N","Longitud":"74° 5' 55,925\" W","AlturaElip":"2958,367","Divipola":"11001","Nota_Aclaratoria":"La estación pertenece a la Red Geodésica Nacional"}},{"type":"Feature","id":640,"geometry":{"type":"Point","coordinates":[-74.121295128524977,4.7380099543419121]},"properties":{"OBJECTID":640,"MRTAdmin":3,"MRTNomencl":"ABPS","MDANMNombr":"Bogotá, D.C.","DeNombre":"Bogotá, D.C.","FMaterializacion":1601856000000,"RedGeoAc_RedNacional_MRTMaterial":"EAAB","Latitud":"4° 44' 16,836\" N","Longitud":"74° 7' 16,662\" W","AlturaElip":"2568,044","Divipola":"11001","Nota_Aclaratoria":"La estación pertenece a la Red Geodésica Nacional"}},{"type":"Feature","id":641,"geometry":{"type":"Point","coordinates":[-74.071767416427093,4.5753942260344926]},"properties":{"OBJECTID":641,"MRTAdmin":3,"MRTNomencl":"ABPV","MDANMNombr":"Bogotá, D.C.","DeNombre":"Bogotá, D.C.","FMaterializacion":1605571200000,"RedGeoAc_RedNacional_MRTMaterial":"EAAB","Latitud":"4° 34' 31,419\" N","Longitud":"74° 4' 18,363\" W","AlturaElip":"2795,036","Divipola":"11001","Nota_Aclaratoria":"La estación pertenece a la Red Geodésica Nacional"}},{"type":"Feature","id":642,"geometry":{"type":"Point","coordinates":[-73.995114644450922,4.6895706272749909]},"properties":{"OBJECTID":642,"MRTAdmin":3,"MRTNomencl":"ABPW","MDANMNombr":"La Calera","DeNombre":"Cundinamarca","FMaterializacion":1229385600000,"RedGeoAc_RedNacional_MRTMaterial":"EAAB","Latitud":"4° 41' 22,454\" N","Longitud":"73° 59' 42,413\" W","AlturaElip":"2837,077","Divipola":"25377","Nota_Aclaratoria":"La estación pertenece a la Red Geodésica Nacional"}},{"type":"Feature","id":643,"geometry":{"type":"Point","coordinates":[-74.00030126376457,4.7060172513827565]},"properties":{"OBJECTID":643,"MRTAdmin":3,"MRTNomencl":"ABSR","MDANMNombr":"Bogotá, D.C.","DeNombre":"Bogotá, D.C.","FMaterializacion":1601856000000,"RedGeoAc_RedNacional_MRTMaterial":"EAAB","Latitud":"4° 42' 21,662\" N","Longitud":"74° 0' 1,085\" W","AlturaElip":"2836,04","Divipola":"11001","Nota_Aclaratoria":"La estación pertenece a la Red Geodésica Nacional"}},{"type":"Feature","id":644,"geometry":{"type":"Point","coordinates":[-73.974503736389863,4.9772348987209956]},"properties":{"OBJECTID":644,"MRTAdmin":3,"MRTNomencl":"ABTI","MDANMNombr":"Bogotá, D.C.","DeNombre":"Bogotá, D.C.","FMaterializacion":1605571200000,"RedGeoAc_RedNacional_MRTMaterial":"EAAB","Latitud":"4° 58' 38,046\" N","Longitud":"73° 58' 28,213\" W","AlturaElip":"2585,363","Divipola":"11001","Nota_Aclaratoria":"La estación pertenece a la Red Geodésica Nacional"}},{"type":"Feature","id":645,"geometry":{"type":"Point","coordinates":[-73.045503911749279,10.029103452964153]},"properties":{"OBJECTID":645,"MRTAdmin":1,"MRTNomencl":"ACDZ","MDANMNombr":"Agustín Codazzi","DeNombre":"Cesar","FMaterializacion":1648944000000,"RedGeoAc_RedNacional_MRTMaterial":"IGAC y SGC","Latitud":"10° 1' 44,772\" N","Longitud":"73° 2' 43,814\" W","AlturaElip":"2267,571","Divipola":"20013","Nota_Aclaratoria":"La estación pertenece a la Red Geodésica Nacional"}},{"type":"Feature","id":646,"geometry":{"type":"Point","coordinates":[-75.291761979836906,2.9558233054462155]},"properties":{"OBJECTID":646,"MRTAdmin":2,"MRTNomencl":"AEBS","MDANMNombr":"Neiva","DeNombre":"Huila","FMaterializacion":1496793600000,"RedGeoAc_RedNacional_MRTMaterial":"Servicio Geológico Colombiano","Latitud":"2° 57' 20,964\" N","Longitud":"75° 17' 30,343\" W","AlturaElip":"474,873","Divipola":"41001","Nota_Aclaratoria":"La estación pertenece a la Red Geodésica Nacional"}},{"type":"Feature","id":647,"geometry":{"type":"Point","coordinates":[-75.4659812866648,3.7249268831728193]},"properties":{"OBJECTID":647,"MRTAdmin":1,"MRTNomencl":"AECH","MDANMNombr":"Chaparral","DeNombre":"Tolima","FMaterializacion":1543449600000,"RedGeoAc_RedNacional_MRTMaterial":"IGAC y SGC","Latitud":"3° 43' 29,737\" N","Longitud":"75° 27' 57,533\" W","AlturaElip":"832,186","Divipola":"73168","Nota_Aclaratoria":"La estación pertenece a la Red Geodésica Nacional"}},{"type":"Feature","id":648,"geometry":{"type":"Point","coordinates":[-75.954154772650654,4.7663972165067836]},"properties":{"OBJECTID":648,"MRTAdmin":2,"MRTNomencl":"AECT","MDANMNombr":"Cartago","DeNombre":"Valle del Cauca","FMaterializacion":1524787200000,"RedGeoAc_RedNacional_MRTMaterial":"Servicio Geológico Colombiano","Latitud":"4° 45' 59,030\" N","Longitud":"75° 57' 14,957\" W","AlturaElip":"933,932","Divipola":"76147","Nota_Aclaratoria":"La estación pertenece a la Red Geodésica Nacional"}},{"type":"Feature","id":649,"geometry":{"type":"Point","coordinates":[-74.138786673275646,4.6884314216362348]},"properties":{"OBJECTID":649,"MRTAdmin":2,"MRTNomencl":"AEDO","MDANMNombr":"Bogotá, D.C.","DeNombre":"Bogotá, D.C.","FMaterializacion":1454630400000,"RedGeoAc_RedNacional_MRTMaterial":"Servicio Geológico Colombiano","Latitud":"4° 41' 18,353\" N","Longitud":"74° 8' 19,632\" W","AlturaElip":"2569,122","Divipola":"11001","Nota_Aclaratoria":"La estación pertenece a la Red Geodésica Nacional"}},{"type":"Feature","id":650,"geometry":{"type":"Point","coordinates":[-75.562132450520807,1.5889322114278035]},"properties":{"OBJECTID":650,"MRTAdmin":1,"MRTNomencl":"AEFO","MDANMNombr":"Florencia","DeNombre":"Caquetá","FMaterializacion":1542931200000,"RedGeoAc_RedNacional_MRTMaterial":"IGAC y SGC","Latitud":"1° 35' 20,156\" N","Longitud":"75° 33' 43,677\" W","AlturaElip":"266,634","Divipola":"18001","Nota_Aclaratoria":"La estación pertenece a la Red Geodésica Nacional"}},{"type":"Feature","id":651,"geometry":{"type":"Point","coordinates":[-74.05757655262785,4.8096573792804591]},"properties":{"OBJECTID":651,"MRTAdmin":1,"MRTNomencl":"AEGU","MDANMNombr":"Bogotá, D.C.","DeNombre":"Bogotá, D.C.","FMaterializacion":1541548800000,"RedGeoAc_RedNacional_MRTMaterial":"IGAC y SGC","Latitud":"4° 48' 34,767\" N","Longitud":"74° 3' 27,276\" W","AlturaElip":"2579,38","Divipola":"11001","Nota_Aclaratoria":"La estación pertenece a la Red Geodésica Nacional"}},{"type":"Feature","id":652,"geometry":{"type":"Point","coordinates":[-74.435775631858277,9.2629670354767359]},"properties":{"OBJECTID":652,"MRTAdmin":2,"MRTNomencl":"AEMO","MDANMNombr":"Santa Cruz de Mompós","DeNombre":"Bolívar","FMaterializacion":1503014400000,"RedGeoAc_RedNacional_MRTMaterial":"Servicio Geológico Colombiano","Latitud":"9° 15' 46,681\" N","Longitud":"74° 26' 8,792\" W","AlturaElip":"16,681","Divipola":"13468","Nota_Aclaratoria":"La estación pertenece a la Red Geodésica Nacional"}},{"type":"Feature","id":653,"geometry":{"type":"Point","coordinates":[-75.742123054273833,4.812911079282002]},"properties":{"OBJECTID":653,"MRTAdmin":2,"MRTNomencl":"AEMT","MDANMNombr":"Pereira","DeNombre":"Risaralda","FMaterializacion":1501718400000,"RedGeoAc_RedNacional_MRTMaterial":"Servicio Geológico Colombiano","Latitud":"4° 48' 46,480\" N","Longitud":"75° 44' 31,643\" W","AlturaElip":"1362,908","Divipola":"66001","Nota_Aclaratoria":"La estación pertenece a la Red Geodésica Nacional"}},{"type":"Feature","id":654,"geometry":{"type":"Point","coordinates":[-75.64110995792096,3.2001790698988417]},"properties":{"OBJECTID":654,"MRTAdmin":1,"MRTNomencl":"AEP1","MDANMNombr":"Planadas","DeNombre":"Tolima","FMaterializacion":1603411200000,"RedGeoAc_RedNacional_MRTMaterial":"IGAC y SGC","Latitud":"3° 12' 0,645\" N","Longitud":"75° 38' 27,996\" W","AlturaElip":"1208,769","Divipola":"73555","Nota_Aclaratoria":"La estación pertenece a la Red Geodésica Nacional"}},{"type":"Feature","id":655,"geometry":{"type":"Point","coordinates":[-75.642841000097334,3.193888998246301]},"properties":{"OBJECTID":655,"MRTAdmin":1,"MRTNomencl":"AEP2","MDANMNombr":"Planadas","DeNombre":"Tolima","FMaterializacion":1760659200000,"RedGeoAc_RedNacional_MRTMaterial":"Instituto Geográfico Agustín Codazzi","Latitud":"3° 11' 38,000\" N","Longitud":"75° 38' 34,228\" W","AlturaElip":"1238,639","Divipola":"73555","Nota_Aclaratoria":"La estación pertenece a la Red Geodésica Nacional"}},{"type":"Feature","id":656,"geometry":{"type":"Point","coordinates":[-76.382448003398721,3.5328356828550125]},"properties":{"OBJECTID":656,"MRTAdmin":2,"MRTNomencl":"AEPA","MDANMNombr":"Palmira","DeNombre":"Valle del Cauca","FMaterializacion":1527033600000,"RedGeoAc_RedNacional_MRTMaterial":"Servicio Geológico Colombiano","Latitud":"3° 31' 58,208\" N","Longitud":"76° 22' 56,813\" W","AlturaElip":"989,536","Divipola":"76520","Nota_Aclaratoria":"La estación pertenece a la Red Geodésica Nacional"}},{"type":"Feature","id":657,"geometry":{"type":"Point","coordinates":[-74.230935308055365,11.11252828382047]},"properties":{"OBJECTID":657,"MRTAdmin":2,"MRTNomencl":"AESI","MDANMNombr":"Santa Marta","DeNombre":"Magdalena","FMaterializacion":1574899200000,"RedGeoAc_RedNacional_MRTMaterial":"Servicio Geológico Colombiano","Latitud":"11° 6' 45,102\" N","Longitud":"74° 13' 51,367\" W","AlturaElip":"0,016","Divipola":"47001","Nota_Aclaratoria":"La estación pertenece a la Red Geodésica Nacional"}},{"type":"Feature","id":658,"geometry":{"type":"Point","coordinates":[-74.189349987757254,10.584903472865035]},"properties":{"OBJECTID":658,"MRTAdmin":1,"MRTNomencl":"AGAB","MDANMNombr":"Aracataca","DeNombre":"Magdalena","FMaterializacion":1619395200000,"RedGeoAc_RedNacional_MRTMaterial":"IGAC y SGC","Latitud":"10° 35' 5,653\" N","Longitud":"74° 11' 21,660\" W","AlturaElip":"32,65","Divipola":"47053","Nota_Aclaratoria":"La estación pertenece a la Red Geodésica Nacional"}},{"type":"Feature","id":659,"geometry":{"type":"Point","coordinates":[-74.043114655859881,10.305463719227442]},"properties":{"OBJECTID":659,"MRTAdmin":1,"MRTNomencl":"AGBO","MDANMNombr":"Algarrobo","DeNombre":"Magdalena","FMaterializacion":1684886400000,"RedGeoAc_RedNacional_MRTMaterial":"IGAC y SGC","Latitud":"10° 18' 19,669\" N","Longitud":"74° 2' 35,213\" W","AlturaElip":"147,682","Divipola":"47030","Nota_Aclaratoria":"La estación pertenece a la Red Geodésica Nacional"}},{"type":"Feature","id":660,"geometry":{"type":"Point","coordinates":[-73.59541845835885,8.3150478510460726]},"properties":{"OBJECTID":660,"MRTAdmin":1,"MRTNomencl":"AGCA","MDANMNombr":"Aguachica","DeNombre":"Cesar","FMaterializacion":1337212800000,"RedGeoAc_RedNacional_MRTMaterial":"Instituto Geográfico Agustín Codazzi","Latitud":"8° 18' 54,172\" N","Longitud":"73° 35' 43,506\" W","AlturaElip":"200,876","Divipola":"20011","Nota_Aclaratoria":"La estación pertenece a la Red Geodésica Nacional"}},{"type":"Feature","id":661,"geometry":{"type":"Point","coordinates":[-73.373702253976475,5.5198845467592124]},"properties":{"OBJECTID":661,"MRTAdmin":2,"MRTNomencl":"AGTU","MDANMNombr":"Tunja","DeNombre":"Boyacá","FMaterializacion":1464393600000,"RedGeoAc_RedNacional_MRTMaterial":"Servicio Geológico Colombiano","Latitud":"5° 31' 11,584\" N","Longitud":"73° 22' 25,328\" W","AlturaElip":"2907,829","Divipola":"15001","Nota_Aclaratoria":"La estación pertenece a la Red Geodésica Nacional"}},{"type":"Feature","id":662,"geometry":{"type":"Point","coordinates":[-74.884549103696827,5.2104103265127044]},"properties":{"OBJECTID":662,"MRTAdmin":2,"MRTNomencl":"AJCM","MDANMNombr":"San Sebastián de Mariquita","DeNombre":"Tolima","FMaterializacion":1404691200000,"RedGeoAc_RedNacional_MRTMaterial":"Servicio Geológico Colombiano","Latitud":"5° 12' 37,477\" N","Longitud":"74° 53' 4,377\" W","AlturaElip":"487,555","Divipola":"73443","Nota_Aclaratoria":"La estación pertenece a la Red Geodésica Nacional"}},{"type":"Feature","id":663,"geometry":{"type":"Point","coordinates":[-73.389436084267473,7.7605200251257447]},"properties":{"OBJECTID":663,"MRTAdmin":1,"MRTNomencl":"ALBE","MDANMNombr":"San Alberto","DeNombre":"Cesar","FMaterializacion":1350777600000,"RedGeoAc_RedNacional_MRTMaterial":"Instituto Geográfico Agustín Codazzi","Latitud":"7° 45' 37,872\" N","Longitud":"73° 23' 21,970\" W","AlturaElip":"132,452","Divipola":"20710","Nota_Aclaratoria":"La estación pertenece a la Red Geodésica Nacional"}},{"type":"Feature","id":664,"geometry":{"type":"Point","coordinates":[-72.917756429849248,11.527985203701112]},"properties":{"OBJECTID":664,"MRTAdmin":2,"MRTNomencl":"ALPA","MDANMNombr":"Riohacha","DeNombre":"La Guajira","FMaterializacion":1252886400000,"RedGeoAc_RedNacional_MRTMaterial":"Servicio Geológico Colombiano","Latitud":"11° 31' 40,747\" N","Longitud":"72° 55' 3,923\" W","AlturaElip":"1,785","Divipola":"44001","Nota_Aclaratoria":"La estación pertenece a la Red Geodésica Nacional"}},{"type":"Feature","id":665,"geometry":{"type":"Point","coordinates":[-76.870139255337392,3.5346622174765767]},"properties":{"OBJECTID":665,"MRTAdmin":2,"MRTNomencl":"ANCH","MDANMNombr":"Dagua","DeNombre":"Valle del Cauca","FMaterializacion":1379721600000,"RedGeoAc_RedNacional_MRTMaterial":"Servicio Geológico Colombiano","Latitud":"3° 32' 4,784\" N","Longitud":"76° 52' 12,501\" W","AlturaElip":"731,086","Divipola":"76233","Nota_Aclaratoria":"La estación pertenece a la Red Geodésica Nacional"}},{"type":"Feature","id":666,"geometry":{"type":"Point","coordinates":[-81.700729294538704,12.586347212983716]},"properties":{"OBJECTID":666,"MRTAdmin":1,"MRTNomencl":"ANDS","MDANMNombr":"San Andrés","DeNombre":"San Andrés, Providencia y Santa Catalina","FMaterializacion":1178496000000,"RedGeoAc_RedNacional_MRTMaterial":"Instituto Geográfico Agustín Codazzi","Latitud":"12° 35' 10,850\" N","Longitud":"81° 42' 2,625\" W","AlturaElip":"16,209","Divipola":"88001","Nota_Aclaratoria":"La estación pertenece a la Red Geodésica Nacional"}},{"type":"Feature","id":667,"geometry":{"type":"Point","coordinates":[-76.632389749588924,7.8777883646254852]},"properties":{"OBJECTID":667,"MRTAdmin":1,"MRTNomencl":"APTO","MDANMNombr":"Apartadó","DeNombre":"Antioquia","FMaterializacion":1193875200000,"RedGeoAc_RedNacional_MRTMaterial":"Instituto Geográfico Agustín Codazzi","Latitud":"7° 52' 40,038\" N","Longitud":"76° 37' 56,603\" W","AlturaElip":"45,14","Divipola":"05045","Nota_Aclaratoria":"La estación pertenece a la Red Geodésica Nacional"}},{"type":"Feature","id":668,"geometry":{"type":"Point","coordinates":[-71.406906266032792,7.0250066997088263]},"properties":{"OBJECTID":668,"MRTAdmin":1,"MRTNomencl":"AQTA","MDANMNombr":"Arauquita","DeNombre":"Arauca","FMaterializacion":1615248000000,"RedGeoAc_RedNacional_MRTMaterial":"IGAC y SGC","Latitud":"7° 1' 30,024\" N","Longitud":"71° 24' 24,863\" W","AlturaElip":"152,368","Divipola":"81065","Nota_Aclaratoria":"La estación pertenece a la Red Geodésica Nacional"}},{"type":"Feature","id":669,"geometry":{"type":"Point","coordinates":[-70.758533831939133,7.0842772800689069]},"properties":{"OBJECTID":669,"MRTAdmin":1,"MRTNomencl":"ARCA","MDANMNombr":"Arauca","DeNombre":"Arauca","FMaterializacion":1217808000000,"RedGeoAc_RedNacional_MRTMaterial":"Instituto Geográfico Agustín Codazzi","Latitud":"7° 5' 3,398\" N","Longitud":"70° 45' 30,722\" W","AlturaElip":"133,316","Divipola":"81001","Nota_Aclaratoria":"La estación pertenece a la Red Geodésica Nacional"}},{"type":"Feature","id":670,"geometry":{"type":"Point","coordinates":[-77.240423295877832,2.2884626855107855]},"properties":{"OBJECTID":670,"MRTAdmin":1,"MRTNomencl":"ARGL","MDANMNombr":"Argelia","DeNombre":"Cauca","FMaterializacion":1645747200000,"RedGeoAc_RedNacional_MRTMaterial":"IGAC y SGC","Latitud":"2° 17' 18,466\" N","Longitud":"77° 14' 25,524\" W","AlturaElip":"1199,613","Divipola":"19050","Nota_Aclaratoria":"La estación pertenece a la Red Geodésica Nacional"}},{"type":"Feature","id":671,"geometry":{"type":"Point","coordinates":[-71.747576000384058,-2.1428989956281428]},"properties":{"OBJECTID":671,"MRTAdmin":1,"MRTNomencl":"ARIC","MDANMNombr":"Puerto Arica","DeNombre":"Amazonas","FMaterializacion":1731628800000,"RedGeoAc_RedNacional_MRTMaterial":"Instituto Geográfico Agustín Codazzi","Latitud":"2° 8' 34,436\" S","Longitud":"71° 44' 51,274\" W","AlturaElip":"113,1351","Divipola":"91536","Nota_Aclaratoria":"La estación pertenece a la Red Geodésica Nacional"}},{"type":"Feature","id":672,"geometry":{"type":"Point","coordinates":[-71.8865030003589,5.8793369982710191]},"properties":{"OBJECTID":672,"MRTAdmin":1,"MRTNomencl":"ARIP","MDANMNombr":"Paz de Ariporo","DeNombre":"Casanare","FMaterializacion":1720483200000,"RedGeoAc_RedNacional_MRTMaterial":"Instituto Geográfico Agustín Codazzi","Latitud":"5° 52' 45,613\" N","Longitud":"71° 53' 11,411\" W","AlturaElip":"287,154","Divipola":"85250","Nota_Aclaratoria":"La estación pertenece a la Red Geodésica Nacional"}},{"type":"Feature","id":673,"geometry":{"type":"Point","coordinates":[-73.972562030852103,9.5077840714252719]},"properties":{"OBJECTID":673,"MRTAdmin":1,"MRTNomencl":"ASTR","MDANMNombr":"Astrea","DeNombre":"Cesar","FMaterializacion":1695772800000,"RedGeoAc_RedNacional_MRTMaterial":"IGAC y SGC","Latitud":"9° 30' 28,023\" N","Longitud":"73° 58' 21,223\" W","AlturaElip":"90,2529","Divipola":"20032","Nota_Aclaratoria":"La estación pertenece a la Red Geodésica Nacional"}},{"type":"Feature","id":674,"geometry":{"type":"Point","coordinates":[-74.796273809094799,4.2724417302686035]},"properties":{"OBJECTID":674,"MRTAdmin":2,"MRTNomencl":"ASVI","MDANMNombr":"Flandes","DeNombre":"Tolima","FMaterializacion":1466812800000,"RedGeoAc_RedNacional_MRTMaterial":"Servicio Geológico Colombiano","Latitud":"4° 16' 20,790\" N","Longitud":"74° 47' 46,586\" W","AlturaElip":"304,856","Divipola":"73275","Nota_Aclaratoria":"La estación pertenece a la Red Geodésica Nacional"}},{"type":"Feature","id":675,"geometry":{"type":"Point","coordinates":[-75.164366000478111,8.2949699965647774]},"properties":{"OBJECTID":675,"MRTAdmin":1,"MRTNomencl":"AYAP","MDANMNombr":"Ayapel","DeNombre":"Córdoba","FMaterializacion":1719187200000,"RedGeoAc_RedNacional_MRTMaterial":"IGAC y SGC","Latitud":"8° 17' 41,892\" N","Longitud":"75° 9' 51,718\" W","AlturaElip":"33","Divipola":"23068","Nota_Aclaratoria":"La estación pertenece a la Red Geodésica Nacional"}},{"type":"Feature","id":676,"geometry":{"type":"Point","coordinates":[-75.234075781784298,0.74247749541635233]},"properties":{"OBJECTID":676,"MRTAdmin":2,"MRTNomencl":"BA3E","MDANMNombr":"Solano","DeNombre":"Caquetá","FMaterializacion":1444262400000,"RedGeoAc_RedNacional_MRTMaterial":"Servicio Geológico Colombiano","Latitud":"0° 44' 32,919\" N","Longitud":"75° 14' 2,673\" W","AlturaElip":"220,296","Divipola":"18756","Nota_Aclaratoria":"La estación pertenece a la Red Geodésica Nacional"}},{"type":"Feature","id":677,"geometry":{"type":"Point","coordinates":[-73.554012756657997,4.0718029247289573]},"properties":{"OBJECTID":677,"MRTAdmin":2,"MRTNomencl":"BAAP","MDANMNombr":"Villavicencio","DeNombre":"Meta","FMaterializacion":1336953600000,"RedGeoAc_RedNacional_MRTMaterial":"Servicio Geológico Colombiano","Latitud":"4° 4' 18,491\" N","Longitud":"73° 33' 14,446\" W","AlturaElip":"379,552","Divipola":"50001","Nota_Aclaratoria":"La estación pertenece a la Red Geodésica Nacional"}},{"type":"Feature","id":678,"geometry":{"type":"Point","coordinates":[-75.691927221335447,9.40243828998819]},"properties":{"OBJECTID":678,"MRTAdmin":2,"MRTNomencl":"BACO","MDANMNombr":"Coveñas","DeNombre":"Sucre","FMaterializacion":1342569600000,"RedGeoAc_RedNacional_MRTMaterial":"Servicio Geológico Colombiano","Latitud":"9° 24' 8,778\" N","Longitud":"75° 41' 30,938\" W","AlturaElip":"13,836","Divipola":"70221","Nota_Aclaratoria":"La estación pertenece a la Red Geodésica Nacional"}},{"type":"Feature","id":679,"geometry":{"type":"Point","coordinates":[-74.56508519609271,4.2355972438830811]},"properties":{"OBJECTID":679,"MRTAdmin":2,"MRTNomencl":"BAME","MDANMNombr":"Melgar","DeNombre":"Tolima","FMaterializacion":1353801600000,"RedGeoAc_RedNacional_MRTMaterial":"Servicio Geológico Colombiano","Latitud":"4° 14' 8,150\" N","Longitud":"74° 33' 54,307\" W","AlturaElip":"1568,941","Divipola":"73449","Nota_Aclaratoria":"La estación pertenece a la Red Geodésica Nacional"}},{"type":"Feature","id":680,"geometry":{"type":"Point","coordinates":[-74.657508740890762,5.4664165489545997]},"properties":{"OBJECTID":680,"MRTAdmin":2,"MRTNomencl":"BAPA","MDANMNombr":"Puerto Salgar","DeNombre":"Cundinamarca","FMaterializacion":1285891200000,"RedGeoAc_RedNacional_MRTMaterial":"Servicio Geológico Colombiano","Latitud":"5° 27' 59,100\" N","Longitud":"74° 39' 27,031\" W","AlturaElip":"190,898","Divipola":"25572","Nota_Aclaratoria":"La estación pertenece a la Red Geodésica Nacional"}},{"type":"Feature","id":681,"geometry":{"type":"Point","coordinates":[-77.393230841571651,6.2029706561810283]},"properties":{"OBJECTID":681,"MRTAdmin":2,"MRTNomencl":"BASO","MDANMNombr":"Quibdó","DeNombre":"Chocó","FMaterializacion":1237161600000,"RedGeoAc_RedNacional_MRTMaterial":"Servicio Geológico Colombiano","Latitud":"6° 12' 10,694\" N","Longitud":"77° 23' 35,631\" W","AlturaElip":"36,267","Divipola":"27001","Nota_Aclaratoria":"La estación pertenece a la Red Geodésica Nacional"}},{"type":"Feature","id":682,"geometry":{"type":"Point","coordinates":[-73.279261634268977,9.7020999724267263]},"properties":{"OBJECTID":682,"MRTAdmin":1,"MRTNomencl":"BECE","MDANMNombr":"Becerril","DeNombre":"Cesar","FMaterializacion":1379030400000,"RedGeoAc_RedNacional_MRTMaterial":"Instituto Geográfico Agustín Codazzi","Latitud":"9° 42' 7,560\" N","Longitud":"73° 16' 45,342\" W","AlturaElip":"120,774","Divipola":"20045","Nota_Aclaratoria":"La estación pertenece a la Red Geodésica Nacional"}},{"type":"Feature","id":683,"geometry":{"type":"Point","coordinates":[-73.875591050665463,7.0606372950738354]},"properties":{"OBJECTID":683,"MRTAdmin":1,"MRTNomencl":"BEJA","MDANMNombr":"Barrancabermeja","DeNombre":"Santander","FMaterializacion":1351814400000,"RedGeoAc_RedNacional_MRTMaterial":"Instituto Geográfico Agustín Codazzi","Latitud":"7° 3' 38,294\" N","Longitud":"73° 52' 32,128\" W","AlturaElip":"93,543","Divipola":"68081","Nota_Aclaratoria":"La estación pertenece a la Red Geodésica Nacional"}},{"type":"Feature","id":684,"geometry":{"type":"Point","coordinates":[-74.410309162283738,6.4926854091524353]},"properties":{"OBJECTID":684,"MRTAdmin":1,"MRTNomencl":"BERR","MDANMNombr":"Puerto Berrío","DeNombre":"Antioquia","FMaterializacion":1180051200000,"RedGeoAc_RedNacional_MRTMaterial":"Instituto Geográfico Agustín Codazzi","Latitud":"6° 29' 33,667\" N","Longitud":"74° 24' 37,113\" W","AlturaElip":"159,078","Divipola":"05579","Nota_Aclaratoria":"La estación pertenece a la Red Geodésica Nacional"}},{"type":"Feature","id":685,"geometry":{"type":"Point","coordinates":[-76.784040999495744,5.9957639966882699]},"properties":{"OBJECTID":685,"MRTAdmin":1,"MRTNomencl":"BETE","MDANMNombr":"Medio Atrato","DeNombre":"Chocó","FMaterializacion":1726531200000,"RedGeoAc_RedNacional_MRTMaterial":"Instituto Geográfico Agustín Codazzi","Latitud":"5° 59' 44,750\" N","Longitud":"76° 47' 2,548\" W","AlturaElip":"59,06","Divipola":"27425","Nota_Aclaratoria":"La estación pertenece a la Red Geodésica Nacional"}},{"type":"Feature","id":686,"geometry":{"type":"Point","coordinates":[-73.123742363988896,7.1048895480538015]},"properties":{"OBJECTID":686,"MRTAdmin":1,"MRTNomencl":"BNGA","MDANMNombr":"Bucaramanga","DeNombre":"Santander","FMaterializacion":1268265600000,"RedGeoAc_RedNacional_MRTMaterial":"Instituto Geográfico Agustín Codazzi","Latitud":"7° 6' 17,602\" N","Longitud":"73° 7' 25,473\" W","AlturaElip":"959,498","Divipola":"68001","Nota_Aclaratoria":"La estación pertenece a la Red Geodésica Nacional"}},{"type":"Feature","id":687,"geometry":{"type":"Point","coordinates":[-73.357553117502249,8.3124459176810834]},"properties":{"OBJECTID":687,"MRTAdmin":2,"MRTNomencl":"BOBG","MDANMNombr":"Ocaña","DeNombre":"Norte de Santander","FMaterializacion":1378684800000,"RedGeoAc_RedNacional_MRTMaterial":"Servicio Geológico Colombiano","Latitud":"8° 18' 44,805\" N","Longitud":"73° 21' 27,191\" W","AlturaElip":"1172,611","Divipola":"54498","Nota_Aclaratoria":"La estación pertenece a la Red Geodésica Nacional"}},{"type":"Feature","id":688,"geometry":{"type":"Point","coordinates":[-74.079949557851208,4.6386830921004671]},"properties":{"OBJECTID":688,"MRTAdmin":1,"MRTNomencl":"BOGA","MDANMNombr":"Bogotá, D.C.","DeNombre":"Bogotá, D.C.","FMaterializacion":950140800000,"RedGeoAc_RedNacional_MRTMaterial":"Instituto Geográfico Agustín Codazzi","Latitud":"4° 38' 19,259\" N","Longitud":"74° 4' 47,818\" W","AlturaElip":"2609,745","Divipola":"11001","Nota_Aclaratoria":"La estación pertenece a la Red Geodésica Nacional"}},{"type":"Feature","id":689,"geometry":{"type":"Point","coordinates":[-74.080939653006993,4.6400751824729269]},"properties":{"OBJECTID":689,"MRTAdmin":2,"MRTNomencl":"BOGT","MDANMNombr":"Bogotá, D.C.","DeNombre":"Bogotá, D.C.","FMaterializacion":783907200000,"RedGeoAc_RedNacional_MRTMaterial":"Servicio Geológico Colombiano","Latitud":"4° 38' 24,271\" N","Longitud":"74° 4' 51,383\" W","AlturaElip":"2576,209","Divipola":"11001","Nota_Aclaratoria":"La estación pertenece a la Red Geodésica Nacional"}},{"type":"Feature","id":690,"geometry":{"type":"Point","coordinates":[-73.886227213135314,9.9668923222384365]},"properties":{"OBJECTID":690,"MRTAdmin":1,"MRTNomencl":"BOSC","MDANMNombr":"Bosconia","DeNombre":"Cesar","FMaterializacion":1353888000000,"RedGeoAc_RedNacional_MRTMaterial":"Instituto Geográfico Agustín Codazzi","Latitud":"9° 58' 0,812\" N","Longitud":"73° 53' 10,418\" W","AlturaElip":"85,581","Divipola":"20060","Nota_Aclaratoria":"La estación pertenece a la Red Geodésica Nacional"}},{"type":"Feature","id":691,"geometry":{"type":"Point","coordinates":[-74.849639900779181,11.019710448168066]},"properties":{"OBJECTID":691,"MRTAdmin":1,"MRTNomencl":"BQLA","MDANMNombr":"Puerto Colombia","DeNombre":"Atlántico","FMaterializacion":1189814400000,"RedGeoAc_RedNacional_MRTMaterial":"Instituto Geográfico Agustín Codazzi","Latitud":"11° 1' 10,958\" N","Longitud":"74° 50' 58,704\" W","AlturaElip":"47,538","Divipola":"08573","Nota_Aclaratoria":"La estación pertenece a la Red Geodésica Nacional"}},{"type":"Feature","id":692,"geometry":{"type":"Point","coordinates":[-77.010419823203293,3.8820245143407113]},"properties":{"OBJECTID":692,"MRTAdmin":1,"MRTNomencl":"BUEN","MDANMNombr":"Buenaventura","DeNombre":"Valle del Cauca","FMaterializacion":1120521600000,"RedGeoAc_RedNacional_MRTMaterial":"Instituto Geográfico Agustín Codazzi","Latitud":"3° 52' 55,288\" N","Longitud":"77° 0' 37,511\" W","AlturaElip":"57,767","Divipola":"76109","Nota_Aclaratoria":"La estación pertenece a la Red Geodésica Nacional"}},{"type":"Feature","id":693,"geometry":{"type":"Point","coordinates":[-76.995798129778194,3.8256865585522015]},"properties":{"OBJECTID":693,"MRTAdmin":2,"MRTNomencl":"BUGT","MDANMNombr":"Buenaventura","DeNombre":"Valle del Cauca","FMaterializacion":1225411200000,"RedGeoAc_RedNacional_MRTMaterial":"Servicio Geológico Colombiano","Latitud":"3° 49' 32,472\" N","Longitud":"76° 59' 44,873\" W","AlturaElip":"47,924","Divipola":"76109","Nota_Aclaratoria":"La estación pertenece a la Red Geodésica Nacional"}},{"type":"Feature","id":694,"geometry":{"type":"Point","coordinates":[-75.364437495741939,2.6120936038677276]},"properties":{"OBJECTID":694,"MRTAdmin":1,"MRTNomencl":"CALE","MDANMNombr":"Campoalegre","DeNombre":"Huila","FMaterializacion":1702771200000,"RedGeoAc_RedNacional_MRTMaterial":"IGAC y SGC","Latitud":"2° 36' 43,537\" N","Longitud":"75° 21' 51,975\" W","AlturaElip":"666,804","Divipola":"41132","Nota_Aclaratoria":"La estación pertenece a la Red Geodésica Nacional"}},{"type":"Feature","id":695,"geometry":{"type":"Point","coordinates":[-76.532564204168253,3.3757884877135154]},"properties":{"OBJECTID":695,"MRTAdmin":1,"MRTNomencl":"CALI","MDANMNombr":"Santiago de Cali","DeNombre":"Valle del Cauca","FMaterializacion":1076371200000,"RedGeoAc_RedNacional_MRTMaterial":"Instituto Geográfico Agustín Codazzi","Latitud":"3° 22' 32,839\" N","Longitud":"76° 31' 57,231\" W","AlturaElip":"1027,492","Divipola":"76001","Nota_Aclaratoria":"La estación pertenece a la Red Geodésica Nacional"}},{"type":"Feature","id":696,"geometry":{"type":"Point","coordinates":[-67.482044226282738,6.1852269279889542]},"properties":{"OBJECTID":696,"MRTAdmin":1,"MRTNomencl":"CAN0","MDANMNombr":"Puerto Carreño","DeNombre":"Vichada","FMaterializacion":1288569600000,"RedGeoAc_RedNacional_MRTMaterial":"Instituto Geográfico Agustín Codazzi","Latitud":"6° 11' 6,817\" N","Longitud":"67° 28' 55,359\" W","AlturaElip":"51,603","Divipola":"99001","Nota_Aclaratoria":"La estación pertenece a la Red Geodésica Nacional"}},{"type":"Feature","id":697,"geometry":{"type":"Point","coordinates":[-72.427757445912775,5.3514241307207593]},"properties":{"OBJECTID":697,"MRTAdmin":2,"MRTNomencl":"CAPI","MDANMNombr":"Yopal","DeNombre":"Casanare","FMaterializacion":1246579200000,"RedGeoAc_RedNacional_MRTMaterial":"Servicio Geológico Colombiano","Latitud":"5° 21' 5,127\" N","Longitud":"72° 25' 39,927\" W","AlturaElip":"935,474","Divipola":"85001","Nota_Aclaratoria":"La estación pertenece a la Red Geodésica Nacional"}},{"type":"Feature","id":698,"geometry":{"type":"Point","coordinates":[-75.533851829505124,10.391335883314468]},"properties":{"OBJECTID":698,"MRTAdmin":1,"MRTNomencl":"CART","MDANMNombr":"Cartagena de Indias","DeNombre":"Bolívar","FMaterializacion":949536000000,"RedGeoAc_RedNacional_MRTMaterial":"Instituto Geográfico Agustín Codazzi","Latitud":"10° 23' 28,809\" N","Longitud":"75° 32' 1,867\" W","AlturaElip":"4,041","Divipola":"13001","Nota_Aclaratoria":"La estación pertenece a la Red Geodésica Nacional"}},{"type":"Feature","id":699,"geometry":{"type":"Point","coordinates":[-75.200033104417841,7.988841054015813]},"properties":{"OBJECTID":699,"MRTAdmin":1,"MRTNomencl":"CASI","MDANMNombr":"Caucasia","DeNombre":"Antioquia","FMaterializacion":1228780800000,"RedGeoAc_RedNacional_MRTMaterial":"Instituto Geográfico Agustín Codazzi","Latitud":"7° 59' 19,828\" N","Longitud":"75° 12' 0,119\" W","AlturaElip":"69,094","Divipola":"05154","Nota_Aclaratoria":"La estación pertenece a la Red Geodésica Nacional"}},{"type":"Feature","id":700,"geometry":{"type":"Point","coordinates":[-72.7927220007833,4.2845279982300246]},"properties":{"OBJECTID":700,"MRTAdmin":1,"MRTNomencl":"CBYA","MDANMNombr":"Cabuyaro","DeNombre":"Meta","FMaterializacion":1733702400000,"RedGeoAc_RedNacional_MRTMaterial":"Instituto Geográfico Agustín Codazzi","Latitud":"4° 17' 4,301\" N","Longitud":"72° 47' 33,799\" W","AlturaElip":"176,4534","Divipola":"50124","Nota_Aclaratoria":"La estación pertenece a la Red Geodésica Nacional"}},{"type":"Feature","id":701,"geometry":{"type":"Point","coordinates":[-72.792987836583364,4.2845568595374726]},"properties":{"OBJECTID":701,"MRTAdmin":1,"MRTNomencl":"CBYR","MDANMNombr":"Cabuyaro","DeNombre":"Meta","FMaterializacion":1669852800000,"RedGeoAc_RedNacional_MRTMaterial":"Instituto Geográfico Agustín Codazzi","Latitud":"4° 17' 4,405\" N","Longitud":"72° 47' 34,756\" W","AlturaElip":"176,472","Divipola":"50124","Nota_Aclaratoria":"La CORS se descontinuo y se reactivo con el identificador CBYA por cambio de posición"}},{"type":"Feature","id":702,"geometry":{"type":"Point","coordinates":[-78.728784877278613,1.8199792064257196]},"properties":{"OBJECTID":702,"MRTAdmin":2,"MRTNomencl":"CCCP","MDANMNombr":"San Andrés de Tumaco","DeNombre":"Nariño","FMaterializacion":1461715200000,"RedGeoAc_RedNacional_MRTMaterial":"Servicio Geológico Colombiano","Latitud":"1° 49' 11,925\" N","Longitud":"78° 43' 43,626\" W","AlturaElip":"20,579","Divipola":"52835","Nota_Aclaratoria":"La estación pertenece a la Red Geodésica Nacional"}},{"type":"Feature","id":703,"geometry":{"type":"Point","coordinates":[-74.844955307262964,1.3421338759020776]},"properties":{"OBJECTID":703,"MRTAdmin":1,"MRTNomencl":"CCHA","MDANMNombr":"Cartagena del Chairá","DeNombre":"Caquetá","FMaterializacion":1703030400000,"RedGeoAc_RedNacional_MRTMaterial":"IGAC y SGC","Latitud":"1° 20' 31,682\" N","Longitud":"74° 50' 41,839\" W","AlturaElip":"269,873","Divipola":"18150","Nota_Aclaratoria":"La estación pertenece a la Red Geodésica Nacional"}},{"type":"Feature","id":704,"geometry":{"type":"Point","coordinates":[-75.474532321624238,3.7190695043760997]},"properties":{"OBJECTID":704,"MRTAdmin":4,"MRTNomencl":"CHPR","MDANMNombr":"Chaparral","DeNombre":"Tolima","FMaterializacion":1652313600000,"RedGeoAc_RedNacional_MRTMaterial":"CELSIA - CELSIA COLOMBIA S.A. E.S.P.","Latitud":"3° 43' 8,650\" N","Longitud":"75° 28' 28,316\" W","AlturaElip":"862,795","Divipola":"73168","Nota_Aclaratoria":"La CORS actualmente no se encuentra en funcionamiento y no hace parte de la Red Geodésica Nacional"}},{"type":"Feature","id":705,"geometry":{"type":"Point","coordinates":[-73.156450997850428,6.2874770040193111]},"properties":{"OBJECTID":705,"MRTAdmin":1,"MRTNomencl":"CHRL","MDANMNombr":"Charalá","DeNombre":"Santander","FMaterializacion":1721520000000,"RedGeoAc_RedNacional_MRTMaterial":"Instituto Geográfico Agustín Codazzi","Latitud":"6° 17' 14,917\" N","Longitud":"73° 9' 23,224\" W","AlturaElip":"1366,879","Divipola":"68167","Nota_Aclaratoria":"La estación pertenece a la Red Geodésica Nacional"}},{"type":"Feature","id":706,"geometry":{"type":"Point","coordinates":[-74.51615600073437,10.114368999343807]},"properties":{"OBJECTID":706,"MRTAdmin":1,"MRTNomencl":"CHVL","MDANMNombr":"Chivolo","DeNombre":"Magdalena","FMaterializacion":1730678400000,"RedGeoAc_RedNacional_MRTMaterial":"Instituto Geográfico Agustín Codazzi","Latitud":"10° 6' 51,728\" N","Longitud":"74° 30' 58,162\" W","AlturaElip":"105,2662","Divipola":"47170","Nota_Aclaratoria":"La estación pertenece a la Red Geodésica Nacional"}},{"type":"Feature","id":707,"geometry":{"type":"Point","coordinates":[-76.357426192029791,3.5052893690403693]},"properties":{"OBJECTID":707,"MRTAdmin":2,"MRTNomencl":"CIA1","MDANMNombr":"Palmira","DeNombre":"Valle del Cauca","FMaterializacion":1226016000000,"RedGeoAc_RedNacional_MRTMaterial":"Servicio Geológico Colombiano","Latitud":"3° 30' 19,042\" N","Longitud":"76° 21' 26,734\" W","AlturaElip":"994,232","Divipola":"76520","Nota_Aclaratoria":"La estación pertenece a la Red Geodésica Nacional"}},{"type":"Feature","id":708,"geometry":{"type":"Point","coordinates":[-75.533882891659005,10.390818199106988]},"properties":{"OBJECTID":708,"MRTAdmin":2,"MRTNomencl":"CIOH","MDANMNombr":"Cartagena de Indias","DeNombre":"Bolívar","FMaterializacion":1414454400000,"RedGeoAc_RedNacional_MRTMaterial":"Servicio Geológico Colombiano","Latitud":"10° 23' 26,946\" N","Longitud":"75° 32' 1,978\" W","AlturaElip":"-3,702","Divipola":"13001","Nota_Aclaratoria":"La estación pertenece a la Red Geodésica Nacional"}},{"type":"Feature","id":709,"geometry":{"type":"Point","coordinates":[-72.64644999786637,1.9598938533503574]},"properties":{"OBJECTID":709,"MRTAdmin":1,"MRTNomencl":"CLMA","MDANMNombr":"Calamar","DeNombre":"Guaviare","FMaterializacion":1698537600000,"RedGeoAc_RedNacional_MRTMaterial":"IGAC y SGC","Latitud":"1° 57' 35,618\" N","Longitud":"72° 38' 47,220\" W","AlturaElip":"238,844","Divipola":"95015","Nota_Aclaratoria":"La estación pertenece a la Red Geodésica Nacional"}},{"type":"Feature","id":710,"geometry":{"type":"Point","coordinates":[-77.57954188271836,1.6519850565799352]},"properties":{"OBJECTID":710,"MRTAdmin":1,"MRTNomencl":"CMBI","MDANMNombr":"Cumbitara","DeNombre":"Nariño","FMaterializacion":1647993600000,"RedGeoAc_RedNacional_MRTMaterial":"IGAC y SGC","Latitud":"1° 39' 7,146\" N","Longitud":"77° 34' 46,351\" W","AlturaElip":"1701,621","Divipola":"52233","Nota_Aclaratoria":"La estación pertenece a la Red Geodésica Nacional"}},{"type":"Feature","id":711,"geometry":{"type":"Point","coordinates":[-73.531596311356125,9.2019469271950314]},"properties":{"OBJECTID":711,"MRTAdmin":1,"MRTNomencl":"CMNI","MDANMNombr":"Curumaní","DeNombre":"Cesar","FMaterializacion":1642982400000,"RedGeoAc_RedNacional_MRTMaterial":"IGAC y SGC","Latitud":"9° 12' 7,009\" N","Longitud":"73° 31' 53,747\" W","AlturaElip":"66,611","Divipola":"20228","Nota_Aclaratoria":"La estación pertenece a la Red Geodésica Nacional"}},{"type":"Feature","id":712,"geometry":{"type":"Point","coordinates":[-81.36291986014183,13.375495887848468]},"properties":{"OBJECTID":712,"MRTAdmin":2,"MRTNomencl":"CN35","MDANMNombr":"San Andrés","DeNombre":"San Andrés, Providencia y Santa Catalina","FMaterializacion":1347235200000,"RedGeoAc_RedNacional_MRTMaterial":"Servicio Geológico Colombiano","Latitud":"13° 22' 31,785\" N","Longitud":"81° 21' 46,511\" W","AlturaElip":"47,854","Divipola":"88001","Nota_Aclaratoria":"La estación pertenece a la Red Geodésica Nacional"}},{"type":"Feature","id":713,"geometry":{"type":"Point","coordinates":[-75.263174492575317,10.792578118558497]},"properties":{"OBJECTID":713,"MRTAdmin":2,"MRTNomencl":"CN37","MDANMNombr":"Santa Catalina","DeNombre":"Bolívar","FMaterializacion":1345766400000,"RedGeoAc_RedNacional_MRTMaterial":"Servicio Geológico Colombiano","Latitud":"10° 47' 33,281\" N","Longitud":"75° 15' 47,428\" W","AlturaElip":"1,459","Divipola":"13673","Nota_Aclaratoria":"La estación pertenece a la Red Geodésica Nacional"}},{"type":"Feature","id":714,"geometry":{"type":"Point","coordinates":[-74.718439092831872,3.5307888526794931]},"properties":{"OBJECTID":714,"MRTAdmin":1,"MRTNomencl":"COLH","MDANMNombr":"Colombia","DeNombre":"Huila","FMaterializacion":1635292800000,"RedGeoAc_RedNacional_MRTMaterial":"IGAC y SGC","Latitud":"3° 31' 50,840\" N","Longitud":"74° 43' 6,381\" W","AlturaElip":"140,234","Divipola":"41206","Nota_Aclaratoria":"La estación pertenece a la Red Geodésica Nacional"}},{"type":"Feature","id":715,"geometry":{"type":"Point","coordinates":[-76.976240626669821,1.183169450525609]},"properties":{"OBJECTID":715,"MRTAdmin":1,"MRTNomencl":"COLN","MDANMNombr":"Colón","DeNombre":"Putumayo","FMaterializacion":1651104000000,"RedGeoAc_RedNacional_MRTMaterial":"IGAC y SGC","Latitud":"1° 10' 59,410\" N","Longitud":"76° 58' 34,466\" W","AlturaElip":"2106,3238","Divipola":"86219","Nota_Aclaratoria":"La estación pertenece a la Red Geodésica Nacional"}},{"type":"Feature","id":716,"geometry":{"type":"Point","coordinates":[-75.287853721359582,9.3280887460562401]},"properties":{"OBJECTID":716,"MRTAdmin":2,"MRTNomencl":"CORO","MDANMNombr":"Corozal","DeNombre":"Sucre","FMaterializacion":1216684800000,"RedGeoAc_RedNacional_MRTMaterial":"Servicio Geológico Colombiano","Latitud":"9° 19' 41,119\" N","Longitud":"75° 17' 16,273\" W","AlturaElip":"155,79","Divipola":"70215","Nota_Aclaratoria":"La estación pertenece a la Red Geodésica Nacional"}},{"type":"Feature","id":717,"geometry":{"type":"Point","coordinates":[-75.554683345920481,4.4722746855859947]},"properties":{"OBJECTID":717,"MRTAdmin":2,"MRTNomencl":"CPAS","MDANMNombr":"Calarcá","DeNombre":"Quindío","FMaterializacion":1442534400000,"RedGeoAc_RedNacional_MRTMaterial":"Servicio Geológico Colombiano","Latitud":"4° 28' 20,189\" N","Longitud":"75° 33' 16,860\" W","AlturaElip":"3303,541","Divipola":"63130","Nota_Aclaratoria":"La estación pertenece a la Red Geodésica Nacional"}},{"type":"Feature","id":718,"geometry":{"type":"Point","coordinates":[-71.307921746000318,1.0209916621252801]},"properties":{"OBJECTID":718,"MRTAdmin":1,"MRTNomencl":"CRRU","MDANMNombr":"Carurú","DeNombre":"Vaupés","FMaterializacion":1708041600000,"RedGeoAc_RedNacional_MRTMaterial":"IGAC y SGC","Latitud":"1° 1' 15,570\" N","Longitud":"71° 18' 28,518\" W","AlturaElip":"229,676","Divipola":"97161","Nota_Aclaratoria":"La estación pertenece a la Red Geodésica Nacional"}},{"type":"Feature","id":719,"geometry":{"type":"Point","coordinates":[-72.51281325827496,7.9322761337570675]},"properties":{"OBJECTID":719,"MRTAdmin":2,"MRTNomencl":"CUC1","MDANMNombr":"San José de Cúcuta","DeNombre":"Norte de Santander","FMaterializacion":1290038400000,"RedGeoAc_RedNacional_MRTMaterial":"Servicio Geológico Colombiano","Latitud":"7° 55' 56,194\" N","Longitud":"72° 30' 46,128\" W","AlturaElip":"321,131","Divipola":"54001","Nota_Aclaratoria":"La estación pertenece a la Red Geodésica Nacional"}},{"type":"Feature","id":720,"geometry":{"type":"Point","coordinates":[-72.487939252654598,7.8984599208255206]},"properties":{"OBJECTID":720,"MRTAdmin":1,"MRTNomencl":"CUCU","MDANMNombr":"San José de Cúcuta","DeNombre":"Norte de Santander","FMaterializacion":1076544000000,"RedGeoAc_RedNacional_MRTMaterial":"Instituto Geográfico Agustín Codazzi","Latitud":"7° 53' 54,456\" N","Longitud":"72° 29' 16,581\" W","AlturaElip":"311,172","Divipola":"54001","Nota_Aclaratoria":"La estación pertenece a la Red Geodésica Nacional"}},{"type":"Feature","id":721,"geometry":{"type":"Point","coordinates":[-69.806442999942931,4.4516509980636041]},"properties":{"OBJECTID":721,"MRTAdmin":1,"MRTNomencl":"CUMA","MDANMNombr":"Cumaribo","DeNombre":"Vichada","FMaterializacion":1713139200000,"RedGeoAc_RedNacional_MRTMaterial":"IGAC y SGC","Latitud":"4° 27' 5,944\" N","Longitud":"69° 48' 23,195\" W","AlturaElip":"168,627","Divipola":"99773","Nota_Aclaratoria":"La estación pertenece a la Red Geodésica Nacional"}},{"type":"Feature","id":722,"geometry":{"type":"Point","coordinates":[-76.679730881244765,3.7390716903587484]},"properties":{"OBJECTID":722,"MRTAdmin":2,"MRTNomencl":"DAGA","MDANMNombr":"Dagua","DeNombre":"Valle del Cauca","FMaterializacion":1563408000000,"RedGeoAc_RedNacional_MRTMaterial":"Servicio Geológico Colombiano","Latitud":"3° 44' 20,658\" N","Longitud":"76° 40' 47,031\" W","AlturaElip":"982,285","Divipola":"76233","Nota_Aclaratoria":"La estación pertenece a la Red Geodésica Nacional"}},{"type":"Feature","id":723,"geometry":{"type":"Point","coordinates":[-73.406700997506192,11.24406299760442]},"properties":{"OBJECTID":723,"MRTAdmin":1,"MRTNomencl":"DIBU","MDANMNombr":"Dibulla","DeNombre":"La Guajira","FMaterializacion":1734566400000,"RedGeoAc_RedNacional_MRTMaterial":"Instituto Geográfico Agustín Codazzi","Latitud":"11° 14' 38,627\" N","Longitud":"73° 24' 24,124\" W","AlturaElip":"13,0709","Divipola":"44090","Nota_Aclaratoria":"La estación pertenece a la Red Geodésica Nacional"}},{"type":"Feature","id":724,"geometry":{"type":"Point","coordinates":[-74.823623211501413,11.040137610859885]},"properties":{"OBJECTID":724,"MRTAdmin":2,"MRTNomencl":"DICA","MDANMNombr":"Barranquilla","DeNombre":"Atlántico","FMaterializacion":1534636800000,"RedGeoAc_RedNacional_MRTMaterial":"Servicio Geológico Colombiano","Latitud":"11° 2' 24,495\" N","Longitud":"74° 49' 25,044\" W","AlturaElip":"-4,154","Divipola":"08001","Nota_Aclaratoria":"La estación pertenece a la Red Geodésica Nacional"}},{"type":"Feature","id":725,"geometry":{"type":"Point","coordinates":[-72.888371999996764,10.883000996287933]},"properties":{"OBJECTID":725,"MRTAdmin":1,"MRTNomencl":"DIST","MDANMNombr":"Distracción","DeNombre":"La Guajira","FMaterializacion":1714521600000,"RedGeoAc_RedNacional_MRTMaterial":"IGAC y SGC","Latitud":"10° 52' 58,804\" N","Longitud":"72° 53' 18,139\" W","AlturaElip":"208,773","Divipola":"44098","Nota_Aclaratoria":"La estación pertenece a la Red Geodésica Nacional"}},{"type":"Feature","id":726,"geometry":{"type":"Point","coordinates":[-74.663312900870025,5.4538463431794666]},"properties":{"OBJECTID":726,"MRTAdmin":1,"MRTNomencl":"DORA","MDANMNombr":"La Dorada","DeNombre":"Caldas","FMaterializacion":1140048000000,"RedGeoAc_RedNacional_MRTMaterial":"Instituto Geográfico Agustín Codazzi","Latitud":"5° 27' 13,847\" N","Longitud":"74° 39' 47,926\" W","AlturaElip":"204,476","Divipola":"17380","Nota_Aclaratoria":"La estación pertenece a la Red Geodésica Nacional"}},{"type":"Feature","id":727,"geometry":{"type":"Point","coordinates":[-74.791490257686817,7.5918156461282473]},"properties":{"OBJECTID":727,"MRTAdmin":1,"MRTNomencl":"EBPT","MDANMNombr":"El Bagre","DeNombre":"Antioquia","FMaterializacion":1605571200000,"RedGeoAc_RedNacional_MRTMaterial":"IGAC y SGC","Latitud":"7° 35' 30,536\" N","Longitud":"74° 47' 29,365\" W","AlturaElip":"119,903","Divipola":"05250","Nota_Aclaratoria":"La estación pertenece a la Red Geodésica Nacional"}},{"type":"Feature","id":728,"geometry":{"type":"Point","coordinates":[-77.101090650659216,1.9893141008273556]},"properties":{"OBJECTID":728,"MRTAdmin":2,"MRTNomencl":"EBRD","MDANMNombr":"Patía","DeNombre":"Cauca","FMaterializacion":1564358400000,"RedGeoAc_RedNacional_MRTMaterial":"Servicio Geológico Colombiano","Latitud":"1° 59' 21,531\" N","Longitud":"77° 6' 3,926\" W","AlturaElip":"638,269","Divipola":"19532","Nota_Aclaratoria":"La estación pertenece a la Red Geodésica Nacional"}},{"type":"Feature","id":729,"geometry":{"type":"Point","coordinates":[-74.887036555749759,4.1529114198241466]},"properties":{"OBJECTID":729,"MRTAdmin":4,"MRTNomencl":"ESPN","MDANMNombr":"Espinal","DeNombre":"Tolima","FMaterializacion":1645056000000,"RedGeoAc_RedNacional_MRTMaterial":"CELSIA - CELSIA COLOMBIA S.A. E.S.P.","Latitud":"4° 9' 10,481\" N","Longitud":"74° 53' 13,332\" W","AlturaElip":"344,112","Divipola":"73268","Nota_Aclaratoria":"La CORS actualmente no se encuentra en funcionamiento y no hace parte de la Red Geodésica Nacional"}},{"type":"Feature","id":730,"geometry":{"type":"Point","coordinates":[-72.876106465519499,11.252805981823558]},"properties":{"OBJECTID":730,"MRTAdmin":2,"MRTNomencl":"FIDE","MDANMNombr":"Riohacha","DeNombre":"La Guajira","FMaterializacion":1574208000000,"RedGeoAc_RedNacional_MRTMaterial":"Servicio Geológico Colombiano","Latitud":"11° 15' 10,102\" N","Longitud":"72° 52' 33,983\" W","AlturaElip":"103,997","Divipola":"44001","Nota_Aclaratoria":"La estación pertenece a la Red Geodésica Nacional"}},{"type":"Feature","id":731,"geometry":{"type":"Point","coordinates":[-73.971958003123504,5.8078120028421081]},"properties":{"OBJECTID":731,"MRTAdmin":1,"MRTNomencl":"FLRN","MDANMNombr":"Florián","DeNombre":"Santander","FMaterializacion":1735344000000,"RedGeoAc_RedNacional_MRTMaterial":"Instituto Geográfico Agustín Codazzi","Latitud":"5° 48' 28,123\" N","Longitud":"73° 58' 19,049\" W","AlturaElip":"1721,1087","Divipola":"68271","Nota_Aclaratoria":"La estación pertenece a la Red Geodésica Nacional"}},{"type":"Feature","id":732,"geometry":{"type":"Point","coordinates":[-73.734808490606383,5.4673449530241038]},"properties":{"OBJECTID":732,"MRTAdmin":1,"MRTNomencl":"FQNE","MDANMNombr":"Fúquene","DeNombre":"Cundinamarca","FMaterializacion":1189296000000,"RedGeoAc_RedNacional_MRTMaterial":"Instituto Geográfico Agustín Codazzi","Latitud":"5° 28' 2,442\" N","Longitud":"73° 44' 5,311\" W","AlturaElip":"2602,033","Divipola":"25288","Nota_Aclaratoria":"La estación pertenece a la Red Geodésica Nacional"}},{"type":"Feature","id":733,"geometry":{"type":"Point","coordinates":[-76.127340292515314,6.7726977471315122]},"properties":{"OBJECTID":733,"MRTAdmin":1,"MRTNomencl":"FRNT","MDANMNombr":"Frontino","DeNombre":"Antioquia","FMaterializacion":1736985600000,"RedGeoAc_RedNacional_MRTMaterial":"Instituto Geográfico Agustín Codazzi","Latitud":"6° 46' 21,712\" N","Longitud":"76° 7' 38,425\" W","AlturaElip":"1374,6445","Divipola":"05284","Nota_Aclaratoria":"La estación pertenece a la Red Geodésica Nacional"}},{"type":"Feature","id":734,"geometry":{"type":"Point","coordinates":[-73.360037553494422,5.0813345320565801]},"properties":{"OBJECTID":734,"MRTAdmin":1,"MRTNomencl":"GARA","MDANMNombr":"Garagoa","DeNombre":"Boyacá","FMaterializacion":1351814400000,"RedGeoAc_RedNacional_MRTMaterial":"Instituto Geográfico Agustín Codazzi","Latitud":"5° 4' 52,804\" N","Longitud":"73° 21' 36,135\" W","AlturaElip":"1750,936","Divipola":"15299","Nota_Aclaratoria":"La estación pertenece a la Red Geodésica Nacional"}},{"type":"Feature","id":735,"geometry":{"type":"Point","coordinates":[-74.759868746433042,9.2399375042829934]},"properties":{"OBJECTID":735,"MRTAdmin":1,"MRTNomencl":"GGUE","MDANMNombr":"Magangué","DeNombre":"Bolívar","FMaterializacion":1124928000000,"RedGeoAc_RedNacional_MRTMaterial":"Instituto Geográfico Agustín Codazzi","Latitud":"9° 14' 23,775\" N","Longitud":"74° 45' 35,527\" W","AlturaElip":"27,077","Divipola":"13430","Nota_Aclaratoria":"La estación pertenece a la Red Geodésica Nacional"}},{"type":"Feature","id":736,"geometry":{"type":"Point","coordinates":[-73.696977496396443,3.5366055769890226]},"properties":{"OBJECTID":736,"MRTAdmin":1,"MRTNomencl":"GNDA","MDANMNombr":"Granada","DeNombre":"Meta","FMaterializacion":1711584000000,"RedGeoAc_RedNacional_MRTMaterial":"IGAC y SGC","Latitud":"3° 32' 11,780\" N","Longitud":"73° 41' 49,119\" W","AlturaElip":"348,7805","Divipola":"50313","Nota_Aclaratoria":"La estación pertenece a la Red Geodésica Nacional"}},{"type":"Feature","id":737,"geometry":{"type":"Point","coordinates":[-75.585322562842578,2.2205682678842313]},"properties":{"OBJECTID":737,"MRTAdmin":1,"MRTNomencl":"GRZN","MDANMNombr":"Garzón","DeNombre":"Huila","FMaterializacion":1656288000000,"RedGeoAc_RedNacional_MRTMaterial":"IGAC y SGC","Latitud":"2° 13' 14,046\" N","Longitud":"75° 35' 7,161\" W","AlturaElip":"1117,456","Divipola":"41298","Nota_Aclaratoria":"La estación pertenece a la Red Geodésica Nacional"}},{"type":"Feature","id":738,"geometry":{"type":"Point","coordinates":[-77.894679615143943,2.5744800942567658]},"properties":{"OBJECTID":738,"MRTAdmin":2,"MRTNomencl":"GUAP","MDANMNombr":"Guapi","DeNombre":"Cauca","FMaterializacion":1301875200000,"RedGeoAc_RedNacional_MRTMaterial":"Servicio Geológico Colombiano","Latitud":"2° 34' 28,128\" N","Longitud":"77° 53' 40,847\" W","AlturaElip":"23,584","Divipola":"19318","Nota_Aclaratoria":"La estación pertenece a la Red Geodésica Nacional"}},{"type":"Feature","id":739,"geometry":{"type":"Point","coordinates":[-72.64119399663538,2.5716529964113168]},"properties":{"OBJECTID":739,"MRTAdmin":1,"MRTNomencl":"GVRE","MDANMNombr":"San José del Guaviare","DeNombre":"Guaviare","FMaterializacion":1353628800000,"RedGeoAc_RedNacional_MRTMaterial":"Instituto Geográfico Agustín Codazzi","Latitud":"2° 34' 17,951\" N","Longitud":"72° 38' 28,298\" W","AlturaElip":"205,406","Divipola":"95001","Nota_Aclaratoria":"La estación pertenece a la Red Geodésica Nacional"}},{"type":"Feature","id":740,"geometry":{"type":"Point","coordinates":[-75.688544156524301,7.0695333891917294]},"properties":{"OBJECTID":740,"MRTAdmin":2,"MRTNomencl":"HITU","MDANMNombr":"Ituango","DeNombre":"Antioquia","FMaterializacion":1527811200000,"RedGeoAc_RedNacional_MRTMaterial":"Servicio Geológico Colombiano","Latitud":"7° 4' 10,320\" N","Longitud":"75° 41' 18,759\" W","AlturaElip":"580,289","Divipola":"05361","Nota_Aclaratoria":"La estación pertenece a la Red Geodésica Nacional"}},{"type":"Feature","id":741,"geometry":{"type":"Point","coordinates":[-75.214723431306481,4.4280464003572959]},"properties":{"OBJECTID":741,"MRTAdmin":1,"MRTNomencl":"IBAG","MDANMNombr":"Ibagué","DeNombre":"Tolima","FMaterializacion":1140220800000,"RedGeoAc_RedNacional_MRTMaterial":"Instituto Geográfico Agustín Codazzi","Latitud":"4° 25' 40,967\" N","Longitud":"75° 12' 53,004\" W","AlturaElip":"1216,081","Divipola":"73001","Nota_Aclaratoria":"La estación pertenece a la Red Geodésica Nacional"}},{"type":"Feature","id":742,"geometry":{"type":"Point","coordinates":[-74.080254998593645,4.6401470009392778]},"properties":{"OBJECTID":742,"MRTAdmin":1,"MRTNomencl":"IGAC","MDANMNombr":"Bogotá, D.C.","DeNombre":"Bogotá, D.C.","FMaterializacion":1718323200000,"RedGeoAc_RedNacional_MRTMaterial":"Instituto Geográfico Agustín Codazzi","Latitud":"4° 38' 24,529\" N","Longitud":"74° 4' 48,918\" W","AlturaElip":"2577,908","Divipola":"11001","Nota_Aclaratoria":"La estación pertenece a la Red Geodésica Nacional"}},{"type":"Feature","id":743,"geometry":{"type":"Point","coordinates":[-67.925843155526479,3.8662111204637317]},"properties":{"OBJECTID":743,"MRTAdmin":1,"MRTNomencl":"INIR","MDANMNombr":"Inírida","DeNombre":"Guainía","FMaterializacion":1344729600000,"RedGeoAc_RedNacional_MRTMaterial":"Instituto Geográfico Agustín Codazzi","Latitud":"3° 51' 58,360\" N","Longitud":"67° 55' 33,035\" W","AlturaElip":"99,95","Divipola":"94001","Nota_Aclaratoria":"La estación pertenece a la Red Geodésica Nacional"}},{"type":"Feature","id":744,"geometry":{"type":"Point","coordinates":[-75.967887376261601,4.5947477609502414]},"properties":{"OBJECTID":744,"MRTAdmin":2,"MRTNomencl":"INOB","MDANMNombr":"Obando","DeNombre":"Valle del Cauca","FMaterializacion":1445558400000,"RedGeoAc_RedNacional_MRTMaterial":"Servicio Geológico Colombiano","Latitud":"4° 35' 41,092\" N","Longitud":"75° 58' 4,395\" W","AlturaElip":"949,839","Divipola":"76497","Nota_Aclaratoria":"La estación pertenece a la Red Geodésica Nacional"}},{"type":"Feature","id":745,"geometry":{"type":"Point","coordinates":[-75.89718292763456,4.9085878524356934]},"properties":{"OBJECTID":745,"MRTAdmin":2,"MRTNomencl":"INRI","MDANMNombr":"Balboa","DeNombre":"Risaralda","FMaterializacion":1390953600000,"RedGeoAc_RedNacional_MRTMaterial":"Servicio Geológico Colombiano","Latitud":"4° 54' 30,916\" N","Longitud":"75° 53' 49,859\" W","AlturaElip":"931,728","Divipola":"66075","Nota_Aclaratoria":"La estación pertenece a la Red Geodésica Nacional"}},{"type":"Feature","id":746,"geometry":{"type":"Point","coordinates":[-75.854377853584538,5.0316034252733379]},"properties":{"OBJECTID":746,"MRTAdmin":2,"MRTNomencl":"INSJ","MDANMNombr":"San José","DeNombre":"Caldas","FMaterializacion":1448755200000,"RedGeoAc_RedNacional_MRTMaterial":"Servicio Geológico Colombiano","Latitud":"5° 1' 53,772\" N","Longitud":"75° 51' 15,760\" W","AlturaElip":"979,207","Divipola":"17665","Nota_Aclaratoria":"La estación pertenece a la Red Geodésica Nacional"}},{"type":"Feature","id":747,"geometry":{"type":"Point","coordinates":[-76.042780129372687,4.642219981496444]},"properties":{"OBJECTID":747,"MRTAdmin":2,"MRTNomencl":"INTO","MDANMNombr":"Toro","DeNombre":"Valle del Cauca","FMaterializacion":1400112000000,"RedGeoAc_RedNacional_MRTMaterial":"Servicio Geológico Colombiano","Latitud":"4° 38' 31,992\" N","Longitud":"76° 2' 34,008\" W","AlturaElip":"1015,932","Divipola":"76823","Nota_Aclaratoria":"La estación pertenece a la Red Geodésica Nacional"}},{"type":"Feature","id":748,"geometry":{"type":"Point","coordinates":[-74.231780051464426,11.188124924113529]},"properties":{"OBJECTID":748,"MRTAdmin":2,"MRTNomencl":"INVE","MDANMNombr":"Santa Marta","DeNombre":"Magdalena","FMaterializacion":1425254400000,"RedGeoAc_RedNacional_MRTMaterial":"Servicio Geológico Colombiano","Latitud":"11° 11' 17,250\" N","Longitud":"74° 13' 54,408\" W","AlturaElip":"-0,887","Divipola":"47001","Nota_Aclaratoria":"La estación pertenece a la Red Geodésica Nacional"}},{"type":"Feature","id":749,"geometry":{"type":"Point","coordinates":[-76.648394999974755,5.2502730035828646]},"properties":{"OBJECTID":749,"MRTAdmin":1,"MRTNomencl":"ISTM","MDANMNombr":"Unión Panamericana","DeNombre":"Chocó","FMaterializacion":1725321600000,"RedGeoAc_RedNacional_MRTMaterial":"Instituto Geográfico Agustín Codazzi","Latitud":"5° 15' 0,983\" N","Longitud":"76° 38' 54,222\" W","AlturaElip":"123,512","Divipola":"27810","Nota_Aclaratoria":"La estación pertenece a la Red Geodésica Nacional"}},{"type":"Feature","id":750,"geometry":{"type":"Point","coordinates":[-76.091569935486078,1.8552349837313618]},"properties":{"OBJECTID":750,"MRTAdmin":2,"MRTNomencl":"LAB1","MDANMNombr":"Pitalito","DeNombre":"Huila","FMaterializacion":1567814400000,"RedGeoAc_RedNacional_MRTMaterial":"Servicio Geológico Colombiano","Latitud":"1° 51' 18,846\" N","Longitud":"76° 5' 29,652\" W","AlturaElip":"1311,61","Divipola":"41551","Nota_Aclaratoria":"La estación pertenece a la Red Geodésica Nacional"}},{"type":"Feature","id":751,"geometry":{"type":"Point","coordinates":[-75.062085056812364,4.9203408926083219]},"properties":{"OBJECTID":751,"MRTAdmin":4,"MRTNomencl":"LBNO","MDANMNombr":"Líbano","DeNombre":"Tolima","FMaterializacion":1652227200000,"RedGeoAc_RedNacional_MRTMaterial":"CELSIA - CELSIA COLOMBIA S.A. E.S.P.","Latitud":"4° 55' 13,227\" N","Longitud":"75° 3' 43,506\" W","AlturaElip":"1605,78","Divipola":"73411","Nota_Aclaratoria":"La CORS actualmente no se encuentra en funcionamiento y no hace parte de la Red Geodésica Nacional"}},{"type":"Feature","id":752,"geometry":{"type":"Point","coordinates":[-76.951058308483354,1.5664661498282459]},"properties":{"OBJECTID":752,"MRTAdmin":2,"MRTNomencl":"LEDE","MDANMNombr":"La Cruz","DeNombre":"Nariño","FMaterializacion":1567123200000,"RedGeoAc_RedNacional_MRTMaterial":"Servicio Geológico Colombiano","Latitud":"1° 33' 59,278\" N","Longitud":"76° 57' 3,810\" W","AlturaElip":"2784,662","Divipola":"52378","Nota_Aclaratoria":"La estación pertenece a la Red Geodésica Nacional"}},{"type":"Feature","id":753,"geometry":{"type":"Point","coordinates":[-74.658611108959761,-0.057222219627087588]},"properties":{"OBJECTID":753,"MRTAdmin":1,"MRTNomencl":"LEGU","MDANMNombr":"Puerto Leguízamo","DeNombre":"Putumayo","FMaterializacion":1707436800000,"RedGeoAc_RedNacional_MRTMaterial":"IGAC y SGC","Latitud":"0° 3' 26,000\" S","Longitud":"74° 39' 31,000\" W","AlturaElip":"191,8","Divipola":"86573","Nota_Aclaratoria":"La estación pertenece a la Red Geodésica Nacional"}},{"type":"Feature","id":754,"geometry":{"type":"Point","coordinates":[-69.942970412387012,-4.2141785824771585]},"properties":{"OBJECTID":754,"MRTAdmin":1,"MRTNomencl":"LETA","MDANMNombr":"Leticia","DeNombre":"Amazonas","FMaterializacion":1322179200000,"RedGeoAc_RedNacional_MRTMaterial":"Instituto Geográfico Agustín Codazzi","Latitud":"4° 12' 51,043\" S","Longitud":"69° 56' 34,693\" W","AlturaElip":"106,716","Divipola":"91001","Nota_Aclaratoria":"La estación pertenece a la Red Geodésica Nacional"}},{"type":"Feature","id":755,"geometry":{"type":"Point","coordinates":[-71.025274434130267,6.787874183526398]},"properties":{"OBJECTID":755,"MRTAdmin":1,"MRTNomencl":"LIPA","MDANMNombr":"Arauquita","DeNombre":"Arauca","FMaterializacion":1616371200000,"RedGeoAc_RedNacional_MRTMaterial":"IGAC y SGC","Latitud":"6° 47' 16,347\" N","Longitud":"71° 1' 30,988\" W","AlturaElip":"129,443","Divipola":"81065","Nota_Aclaratoria":"La estación pertenece a la Red Geodésica Nacional"}},{"type":"Feature","id":756,"geometry":{"type":"Point","coordinates":[-73.789091971633795,2.1689132750476703]},"properties":{"OBJECTID":756,"MRTAdmin":1,"MRTNomencl":"LMAC","MDANMNombr":"La Macarena","DeNombre":"Meta","FMaterializacion":1702598400000,"RedGeoAc_RedNacional_MRTMaterial":"IGAC y SGC","Latitud":"2° 10' 8,088\" N","Longitud":"73° 47' 20,731\" W","AlturaElip":"270,141","Divipola":"50350","Nota_Aclaratoria":"La estación pertenece a la Red Geodésica Nacional"}},{"type":"Feature","id":757,"geometry":{"type":"Point","coordinates":[-69.590489997189536,-1.3196630032096459]},"properties":{"OBJECTID":757,"MRTAdmin":1,"MRTNomencl":"LPDR","MDANMNombr":"La Pedrera","DeNombre":"Amazonas","FMaterializacion":1745020800000,"RedGeoAc_RedNacional_MRTMaterial":"Instituto Geográfico Agustín Codazzi","Latitud":"1° 19' 10,787\" S","Longitud":"69° 35' 25,764\" W","AlturaElip":"102,8442","Divipola":"91407","Nota_Aclaratoria":"La estación pertenece a la Red Geodésica Nacional"}},{"type":"Feature","id":758,"geometry":{"type":"Point","coordinates":[-77.364535995705651,4.2582140012565244]},"properties":{"OBJECTID":758,"MRTAdmin":1,"MRTNomencl":"LSJU","MDANMNombr":"El Litoral del San Juán","DeNombre":"Chocó","FMaterializacion":1725926400000,"RedGeoAc_RedNacional_MRTMaterial":"Instituto Geográfico Agustín Codazzi","Latitud":"4° 15' 29,570\" N","Longitud":"77° 21' 52,330\" W","AlturaElip":"28,275","Divipola":"27250","Nota_Aclaratoria":"La estación pertenece a la Red Geodésica Nacional"}},{"type":"Feature","id":759,"geometry":{"type":"Point","coordinates":[-72.272565997468817,11.384555003402767]},"properties":{"OBJECTID":759,"MRTAdmin":1,"MRTNomencl":"MAIC","MDANMNombr":"Maicao","DeNombre":"La Guajira","FMaterializacion":1730592000000,"RedGeoAc_RedNacional_MRTMaterial":"Instituto Geográfico Agustín Codazzi","Latitud":"11° 23' 4,398\" N","Longitud":"72° 16' 21,238\" W","AlturaElip":"40,2762","Divipola":"44430","Nota_Aclaratoria":"La estación pertenece a la Red Geodésica Nacional"}},{"type":"Feature","id":760,"geometry":{"type":"Point","coordinates":[-72.662017127880844,6.3366803292291483]},"properties":{"OBJECTID":760,"MRTAdmin":2,"MRTNomencl":"MAKA","MDANMNombr":"Soatá","DeNombre":"Boyacá","FMaterializacion":1518307200000,"RedGeoAc_RedNacional_MRTMaterial":"Servicio Geológico Colombiano","Latitud":"6° 20' 12,049\" N","Longitud":"72° 39' 43,262\" W","AlturaElip":"1632,126","Divipola":"15753","Nota_Aclaratoria":"La estación pertenece a la Red Geodésica Nacional"}},{"type":"Feature","id":761,"geometry":{"type":"Point","coordinates":[-72.287375996164727,4.8261940012094273]},"properties":{"OBJECTID":761,"MRTAdmin":1,"MRTNomencl":"MANI","MDANMNombr":"Maní","DeNombre":"Casanare","FMaterializacion":1713398400000,"RedGeoAc_RedNacional_MRTMaterial":"IGAC y SGC","Latitud":"4° 49' 34,298\" N","Longitud":"72° 17' 14,554\" W","AlturaElip":"179,552","Divipola":"85139","Nota_Aclaratoria":"La estación pertenece a la Red Geodésica Nacional"}},{"type":"Feature","id":762,"geometry":{"type":"Point","coordinates":[-75.578916200906093,6.1994060741136137]},"properties":{"OBJECTID":762,"MRTAdmin":1,"MRTNomencl":"MEDE","MDANMNombr":"Medellín","DeNombre":"Antioquia","FMaterializacion":1122163200000,"RedGeoAc_RedNacional_MRTMaterial":"Instituto Geográfico Agustín Codazzi","Latitud":"6° 11' 57,862\" N","Longitud":"75° 34' 44,098\" W","AlturaElip":"1553,46","Divipola":"05001","Nota_Aclaratoria":"La estación pertenece a la Red Geodésica Nacional"}},{"type":"Feature","id":763,"geometry":{"type":"Point","coordinates":[-73.350546679341079,4.510002682566701]},"properties":{"OBJECTID":763,"MRTAdmin":1,"MRTNomencl":"MEDN","MDANMNombr":"Medina","DeNombre":"Cundinamarca","FMaterializacion":1685491200000,"RedGeoAc_RedNacional_MRTMaterial":"IGAC y SGC","Latitud":"4° 30' 36,010\" N","Longitud":"73° 21' 1,968\" W","AlturaElip":"559,789","Divipola":"25438","Nota_Aclaratoria":"La estación pertenece a la Red Geodésica Nacional"}},{"type":"Feature","id":764,"geometry":{"type":"Point","coordinates":[-71.948333331148163,1.344722225510506]},"properties":{"OBJECTID":764,"MRTAdmin":1,"MRTNomencl":"MFLO","MDANMNombr":"Miraflores","DeNombre":"Guaviare","FMaterializacion":1707177600000,"RedGeoAc_RedNacional_MRTMaterial":"IGAC y SGC","Latitud":"1° 20' 41,000\" N","Longitud":"71° 56' 54,000\" W","AlturaElip":"236,7","Divipola":"95200","Nota_Aclaratoria":"La estación pertenece a la Red Geodésica Nacional"}},{"type":"Feature","id":765,"geometry":{"type":"Point","coordinates":[-78.180869264037071,1.7630584939519283]},"properties":{"OBJECTID":765,"MRTAdmin":1,"MRTNomencl":"MGUI","MDANMNombr":"Magüí","DeNombre":"Nariño","FMaterializacion":1647475200000,"RedGeoAc_RedNacional_MRTMaterial":"IGAC y SGC","Latitud":"1° 45' 47,011\" N","Longitud":"78° 10' 51,129\" W","AlturaElip":"76,381","Divipola":"52427","Nota_Aclaratoria":"La estación pertenece a la Red Geodésica Nacional"}},{"type":"Feature","id":766,"geometry":{"type":"Point","coordinates":[-75.507315828036738,1.2903501353270845]},"properties":{"OBJECTID":766,"MRTAdmin":1,"MRTNomencl":"MILN","MDANMNombr":"Milán","DeNombre":"Caquetá","FMaterializacion":1684972800000,"RedGeoAc_RedNacional_MRTMaterial":"IGAC y SGC","Latitud":"1° 17' 25,260\" N","Longitud":"75° 30' 26,337\" W","AlturaElip":"242,025","Divipola":"18460","Nota_Aclaratoria":"La estación pertenece a la Red Geodésica Nacional"}},{"type":"Feature","id":767,"geometry":{"type":"Point","coordinates":[-70.23212683243257,1.2607820087821466]},"properties":{"OBJECTID":767,"MRTAdmin":2,"MRTNomencl":"MITU","MDANMNombr":"Mitú","DeNombre":"Vaupés","FMaterializacion":1369699200000,"RedGeoAc_RedNacional_MRTMaterial":"Servicio Geológico Colombiano","Latitud":"1° 15' 38,815\" N","Longitud":"70° 13' 55,657\" W","AlturaElip":"190,512","Divipola":"97001","Nota_Aclaratoria":"La estación pertenece a la Red Geodésica Nacional"}},{"type":"Feature","id":768,"geometry":{"type":"Point","coordinates":[-74.626397015921697,8.5422499695798653]},"properties":{"OBJECTID":768,"MRTAdmin":1,"MRTNomencl":"MJGL","MDANMNombr":"Majagual","DeNombre":"Sucre","FMaterializacion":1650585600000,"RedGeoAc_RedNacional_MRTMaterial":"IGAC y SGC","Latitud":"8° 32' 32,100\" N","Longitud":"74° 37' 35,029\" W","AlturaElip":"2,206","Divipola":"70429","Nota_Aclaratoria":"La estación pertenece a la Red Geodésica Nacional"}},{"type":"Feature","id":769,"geometry":{"type":"Point","coordinates":[-72.73788241555134,6.7032631789204205]},"properties":{"OBJECTID":769,"MRTAdmin":1,"MRTNomencl":"MLGS","MDANMNombr":"Málaga","DeNombre":"Santander","FMaterializacion":1670803200000,"RedGeoAc_RedNacional_MRTMaterial":"IGAC y SGC","Latitud":"6° 42' 11,747\" N","Longitud":"72° 44' 16,377\" W","AlturaElip":"2300,571","Divipola":"68432","Nota_Aclaratoria":"La estación pertenece a la Red Geodésica Nacional"}},{"type":"Feature","id":770,"geometry":{"type":"Point","coordinates":[-73.683012676420503,8.9589061140561892]},"properties":{"OBJECTID":770,"MRTAdmin":2,"MRTNomencl":"MORA","MDANMNombr":"Pailitas","DeNombre":"Cesar","FMaterializacion":1480118400000,"RedGeoAc_RedNacional_MRTMaterial":"Servicio Geológico Colombiano","Latitud":"8° 57' 32,062\" N","Longitud":"73° 40' 58,846\" W","AlturaElip":"62,361","Divipola":"20517","Nota_Aclaratoria":"La estación pertenece a la Red Geodésica Nacional"}},{"type":"Feature","id":771,"geometry":{"type":"Point","coordinates":[-75.860667567819348,8.7919662756251054]},"properties":{"OBJECTID":771,"MRTAdmin":1,"MRTNomencl":"MOTE","MDANMNombr":"Montería","DeNombre":"Córdoba","FMaterializacion":1141603200000,"RedGeoAc_RedNacional_MRTMaterial":"Instituto Geográfico Agustín Codazzi","Latitud":"8° 47' 31,079\" N","Longitud":"75° 51' 38,403\" W","AlturaElip":"33,172","Divipola":"23001","Nota_Aclaratoria":"La estación pertenece a la Red Geodésica Nacional"}},{"type":"Feature","id":772,"geometry":{"type":"Point","coordinates":[-72.123850860412375,2.8947448648346148]},"properties":{"OBJECTID":772,"MRTAdmin":1,"MRTNomencl":"MPAN","MDANMNombr":"Mapiripán","DeNombre":"Meta","FMaterializacion":1698883200000,"RedGeoAc_RedNacional_MRTMaterial":"IGAC y SGC","Latitud":"2° 53' 41,082\" N","Longitud":"72° 7' 25,863\" W","AlturaElip":"204,956","Divipola":"50325","Nota_Aclaratoria":"La estación pertenece a la Red Geodésica Nacional"}},{"type":"Feature","id":773,"geometry":{"type":"Point","coordinates":[-74.048377506323106,3.3780453676403748]},"properties":{"OBJECTID":773,"MRTAdmin":1,"MRTNomencl":"MSET","MDANMNombr":"Mesetas","DeNombre":"Meta","FMaterializacion":1662076800000,"RedGeoAc_RedNacional_MRTMaterial":"IGAC y SGC","Latitud":"3° 22' 40,963\" N","Longitud":"74° 2' 54,159\" W","AlturaElip":"575,541","Divipola":"50330","Nota_Aclaratoria":"La estación pertenece a la Red Geodésica Nacional"}},{"type":"Feature","id":774,"geometry":{"type":"Point","coordinates":[-76.442577544110549,7.2481800895489101]},"properties":{"OBJECTID":774,"MRTAdmin":1,"MRTNomencl":"MUTT","MDANMNombr":"Mutatá","DeNombre":"Antioquia","FMaterializacion":1737676800000,"RedGeoAc_RedNacional_MRTMaterial":"Instituto Geográfico Agustín Codazzi","Latitud":"7° 14' 53,448\" N","Longitud":"76° 26' 33,279\" W","AlturaElip":"151,5673","Divipola":"05480","Nota_Aclaratoria":"La estación pertenece a la Red Geodésica Nacional"}},{"type":"Feature","id":775,"geometry":{"type":"Point","coordinates":[-75.470524808191669,5.0299962666314642]},"properties":{"OBJECTID":775,"MRTAdmin":2,"MRTNomencl":"MZAL","MDANMNombr":"Manizales","DeNombre":"Caldas","FMaterializacion":823651200000,"RedGeoAc_RedNacional_MRTMaterial":"Servicio Geológico Colombiano","Latitud":"5° 1' 47,987\" N","Longitud":"75° 28' 13,889\" W","AlturaElip":"2101,226","Divipola":"17001","Nota_Aclaratoria":"La estación pertenece a la Red Geodésica Nacional"}},{"type":"Feature","id":776,"geometry":{"type":"Point","coordinates":[-74.776074368522075,8.0839298537507371]},"properties":{"OBJECTID":776,"MRTAdmin":1,"MRTNomencl":"NECI","MDANMNombr":"Nechí","DeNombre":"Antioquia","FMaterializacion":1709769600000,"RedGeoAc_RedNacional_MRTMaterial":"IGAC y SGC","Latitud":"8° 5' 2,147\" N","Longitud":"74° 46' 33,868\" W","AlturaElip":"27,213","Divipola":"05495","Nota_Aclaratoria":"La estación pertenece a la Red Geodésica Nacional"}},{"type":"Feature","id":777,"geometry":{"type":"Point","coordinates":[-75.293031568356227,2.9373020700897481]},"properties":{"OBJECTID":777,"MRTAdmin":1,"MRTNomencl":"NEVA","MDANMNombr":"Neiva","DeNombre":"Huila","FMaterializacion":1132272000000,"RedGeoAc_RedNacional_MRTMaterial":"Instituto Geográfico Agustín Codazzi","Latitud":"2° 56' 14,287\" N","Longitud":"75° 17' 34,914\" W","AlturaElip":"472,685","Divipola":"41001","Nota_Aclaratoria":"La estación pertenece a la Red Geodésica Nacional"}},{"type":"Feature","id":778,"geometry":{"type":"Point","coordinates":[-74.034978322900841,8.5368647076160595]},"properties":{"OBJECTID":778,"MRTAdmin":1,"MRTNomencl":"NRSI","MDANMNombr":"Norosí","DeNombre":"Bolívar","FMaterializacion":1643932800000,"RedGeoAc_RedNacional_MRTMaterial":"IGAC y SGC","Latitud":"8° 32' 12,713\" N","Longitud":"74° 2' 5,922\" W","AlturaElip":"79,346","Divipola":"13490","Nota_Aclaratoria":"La estación pertenece a la Red Geodésica Nacional"}},{"type":"Feature","id":779,"geometry":{"type":"Point","coordinates":[-73.558029426605557,5.6472089061733577]},"properties":{"OBJECTID":779,"MRTAdmin":2,"MRTNomencl":"OAMU","MDANMNombr":"Villa de Leyva","DeNombre":"Boyacá","FMaterializacion":1435881600000,"RedGeoAc_RedNacional_MRTMaterial":"Servicio Geológico Colombiano","Latitud":"5° 38' 49,952\" N","Longitud":"73° 33' 28,906\" W","AlturaElip":"2109,611","Divipola":"15407","Nota_Aclaratoria":"La estación pertenece a la Red Geodésica Nacional"}},{"type":"Feature","id":780,"geometry":{"type":"Point","coordinates":[-71.61581269077594,4.2711828452127349]},"properties":{"OBJECTID":780,"MRTAdmin":2,"MRTNomencl":"OCEL","MDANMNombr":"Puerto Gaitán","DeNombre":"Meta","FMaterializacion":1354320000000,"RedGeoAc_RedNacional_MRTMaterial":"Servicio Geológico Colombiano","Latitud":"4° 16' 16,258\" N","Longitud":"71° 36' 56,926\" W","AlturaElip":"219,409","Divipola":"50568","Nota_Aclaratoria":"La estación pertenece a la Red Geodésica Nacional"}},{"type":"Feature","id":781,"geometry":{"type":"Point","coordinates":[-76.876588202961585,0.66492333797799341]},"properties":{"OBJECTID":781,"MRTAdmin":1,"MRTNomencl":"ORIT","MDANMNombr":"Orito","DeNombre":"Putumayo","FMaterializacion":1651622400000,"RedGeoAc_RedNacional_MRTMaterial":"IGAC y SGC","Latitud":"0° 39' 53,724\" N","Longitud":"76° 52' 35,718\" W","AlturaElip":"2106,3238","Divipola":"86320","Nota_Aclaratoria":"La estación pertenece a la Red Geodésica Nacional"}},{"type":"Feature","id":782,"geometry":{"type":"Point","coordinates":[-75.227811557723356,9.528969028185637]},"properties":{"OBJECTID":782,"MRTAdmin":1,"MRTNomencl":"OVEJ","MDANMNombr":"Ovejas","DeNombre":"Sucre","FMaterializacion":1503792000000,"RedGeoAc_RedNacional_MRTMaterial":"Instituto Geográfico Agustín Codazzi","Latitud":"9° 31' 44,289\" N","Longitud":"75° 13' 40,122\" W","AlturaElip":"254,685","Divipola":"70508","Nota_Aclaratoria":"La estación pertenece a la Red Geodésica Nacional"}},{"type":"Feature","id":783,"geometry":{"type":"Point","coordinates":[-75.227840522322111,9.5289519978865105]},"properties":{"OBJECTID":783,"MRTAdmin":1,"MRTNomencl":"OVJA","MDANMNombr":"Ovejas","DeNombre":"Sucre","FMaterializacion":1755820800000,"RedGeoAc_RedNacional_MRTMaterial":"Instituto Geográfico Agustín Codazzi","Latitud":"9° 31' 44,227\" N","Longitud":"75° 13' 40,226\" W","AlturaElip":"255,02","Divipola":"70508","Nota_Aclaratoria":"La estación pertenece a la Red Geodésica Nacional"}},{"type":"Feature","id":784,"geometry":{"type":"Point","coordinates":[-77.256633862491,1.2101918454640159]},"properties":{"OBJECTID":784,"MRTAdmin":2,"MRTNomencl":"OVSC","MDANMNombr":"Pasto","DeNombre":"Nariño","FMaterializacion":1446854400000,"RedGeoAc_RedNacional_MRTMaterial":"Servicio Geológico Colombiano","Latitud":"1° 12' 36,691\" N","Longitud":"77° 15' 23,882\" W","AlturaElip":"2634,178","Divipola":"52001","Nota_Aclaratoria":"La estación pertenece a la Red Geodésica Nacional"}},{"type":"Feature","id":785,"geometry":{"type":"Point","coordinates":[-73.709510425812439,9.7365654878887131]},"properties":{"OBJECTID":785,"MRTAdmin":1,"MRTNomencl":"P4VI","MDANMNombr":"El Paso","DeNombre":"Cesar","FMaterializacion":1695168000000,"RedGeoAc_RedNacional_MRTMaterial":"IGAC y SGC","Latitud":"9° 44' 11,636\" N","Longitud":"73° 42' 34,238\" W","AlturaElip":"43,3832","Divipola":"20250","Nota_Aclaratoria":"La estación pertenece a la Red Geodésica Nacional"}},{"type":"Feature","id":786,"geometry":{"type":"Point","coordinates":[-73.184174120446102,7.131027709544794]},"properties":{"OBJECTID":786,"MRTAdmin":2,"MRTNomencl":"PAL2","MDANMNombr":"Lebrija","DeNombre":"Santander","FMaterializacion":1404345600000,"RedGeoAc_RedNacional_MRTMaterial":"Servicio Geológico Colombiano","Latitud":"7° 7' 51,700\" N","Longitud":"73° 11' 3,027\" W","AlturaElip":"1215,5","Divipola":"68406","Nota_Aclaratoria":"La estación pertenece a la Red Geodésica Nacional"}},{"type":"Feature","id":787,"geometry":{"type":"Point","coordinates":[-72.647779982327421,7.3841841868114129]},"properties":{"OBJECTID":787,"MRTAdmin":1,"MRTNomencl":"PAMP","MDANMNombr":"Pamplona","DeNombre":"Norte de Santander","FMaterializacion":1349481600000,"RedGeoAc_RedNacional_MRTMaterial":"Instituto Geográfico Agustín Codazzi","Latitud":"7° 23' 3,063\" N","Longitud":"72° 38' 52,008\" W","AlturaElip":"2366,621","Divipola":"54518","Nota_Aclaratoria":"La estación pertenece a la Red Geodésica Nacional"}},{"type":"Feature","id":788,"geometry":{"type":"Point","coordinates":[-76.499400241585207,0.51277936588918427]},"properties":{"OBJECTID":788,"MRTAdmin":2,"MRTNomencl":"PASI","MDANMNombr":"Puerto Asís","DeNombre":"Putumayo","FMaterializacion":1368489600000,"RedGeoAc_RedNacional_MRTMaterial":"Servicio Geológico Colombiano","Latitud":"0° 30' 46,006\" N","Longitud":"76° 29' 57,841\" W","AlturaElip":"274,315","Divipola":"86568","Nota_Aclaratoria":"La estación pertenece a la Red Geodésica Nacional"}},{"type":"Feature","id":789,"geometry":{"type":"Point","coordinates":[-73.125667321352012,5.7464954479148203]},"properties":{"OBJECTID":789,"MRTAdmin":2,"MRTNomencl":"PATU","MDANMNombr":"Paipa","DeNombre":"Boyacá","FMaterializacion":1472860800000,"RedGeoAc_RedNacional_MRTMaterial":"Servicio Geológico Colombiano","Latitud":"5° 44' 47,384\" N","Longitud":"73° 7' 32,402\" W","AlturaElip":"2528,783","Divipola":"15516","Nota_Aclaratoria":"La estación pertenece a la Red Geodésica Nacional"}},{"type":"Feature","id":790,"geometry":{"type":"Point","coordinates":[-74.564574996763483,6.1772020036145241]},"properties":{"OBJECTID":790,"MRTAdmin":1,"MRTNomencl":"PBYA","MDANMNombr":"Puerto Boyacá","DeNombre":"Boyacá","FMaterializacion":1732492800000,"RedGeoAc_RedNacional_MRTMaterial":"Instituto Geográfico Agustín Codazzi","Latitud":"6° 10' 37,927\" N","Longitud":"74° 33' 52,470\" W","AlturaElip":"145,907","Divipola":"15572","Nota_Aclaratoria":"La estación pertenece a la Red Geodésica Nacional"}},{"type":"Feature","id":791,"geometry":{"type":"Point","coordinates":[-75.689509217170013,4.7924975183244261]},"properties":{"OBJECTID":791,"MRTAdmin":1,"MRTNomencl":"PERA","MDANMNombr":"Pereira","DeNombre":"Risaralda","FMaterializacion":1076544000000,"RedGeoAc_RedNacional_MRTMaterial":"Instituto Geográfico Agustín Codazzi","Latitud":"4° 47' 32,991\" N","Longitud":"75° 41' 22,233\" W","AlturaElip":"1496,74","Divipola":"66001","Nota_Aclaratoria":"La estación pertenece a la Red Geodésica Nacional"}},{"type":"Feature","id":792,"geometry":{"type":"Point","coordinates":[-72.092580257286315,4.3205737926061394]},"properties":{"OBJECTID":792,"MRTAdmin":1,"MRTNomencl":"PGTN","MDANMNombr":"Puerto Gaitán","DeNombre":"Meta","FMaterializacion":1652140800000,"RedGeoAc_RedNacional_MRTMaterial":"IGAC y SGC","Latitud":"4° 19' 14,066\" N","Longitud":"72° 5' 33,289\" W","AlturaElip":"166,294","Divipola":"50568","Nota_Aclaratoria":"La estación pertenece a la Red Geodésica Nacional"}},{"type":"Feature","id":793,"geometry":{"type":"Point","coordinates":[-76.40447129342536,0.96781040936757223]},"properties":{"OBJECTID":793,"MRTAdmin":1,"MRTNomencl":"PGUZ","MDANMNombr":"Puerto Guzmán","DeNombre":"Putumayo","FMaterializacion":1652659200000,"RedGeoAc_RedNacional_MRTMaterial":"IGAC y SGC","Latitud":"0° 58' 4,117\" N","Longitud":"76° 24' 16,097\" W","AlturaElip":"297,133","Divipola":"86571","Nota_Aclaratoria":"La estación pertenece a la Red Geodésica Nacional"}},{"type":"Feature","id":794,"geometry":{"type":"Point","coordinates":[-74.458683590553207,8.9144580005480236]},"properties":{"OBJECTID":794,"MRTAdmin":1,"MRTNomencl":"PINI","MDANMNombr":"Pinillos","DeNombre":"Bolívar","FMaterializacion":1643328000000,"RedGeoAc_RedNacional_MRTMaterial":"IGAC y SGC","Latitud":"8° 54' 52,049\" N","Longitud":"74° 27' 31,261\" W","AlturaElip":"19,196","Divipola":"13549","Nota_Aclaratoria":"La estación pertenece a la Red Geodésica Nacional"}},{"type":"Feature","id":795,"geometry":{"type":"Point","coordinates":[-74.622686003690148,10.465124999014723]},"properties":{"OBJECTID":795,"MRTAdmin":1,"MRTNomencl":"PIVI","MDANMNombr":"Pivijay","DeNombre":"Magdalena","FMaterializacion":1730851200000,"RedGeoAc_RedNacional_MRTMaterial":"Instituto Geográfico Agustín Codazzi","Latitud":"10° 27' 54,450\" N","Longitud":"74° 37' 21,670\" W","AlturaElip":"1,6753","Divipola":"47551","Nota_Aclaratoria":"La estación pertenece a la Red Geodésica Nacional"}},{"type":"Feature","id":796,"geometry":{"type":"Point","coordinates":[-75.677437161255966,7.8886888132631281]},"properties":{"OBJECTID":796,"MRTAdmin":1,"MRTNomencl":"PLCO","MDANMNombr":"Puerto Libertador","DeNombre":"Córdoba","FMaterializacion":1702166400000,"RedGeoAc_RedNacional_MRTMaterial":"IGAC y SGC","Latitud":"7° 53' 19,280\" N","Longitud":"75° 40' 38,774\" W","AlturaElip":"89,059","Divipola":"23580","Nota_Aclaratoria":"La estación pertenece a la Red Geodésica Nacional"}},{"type":"Feature","id":797,"geometry":{"type":"Point","coordinates":[-75.539446995462214,8.3552439970382792]},"properties":{"OBJECTID":797,"MRTAdmin":1,"MRTNomencl":"PLRI","MDANMNombr":"Planeta Rica","DeNombre":"Córdoba","FMaterializacion":1730419200000,"RedGeoAc_RedNacional_MRTMaterial":"Instituto Geográfico Agustín Codazzi","Latitud":"8° 21' 18,878\" N","Longitud":"75° 32' 22,009\" W","AlturaElip":"83,9951","Divipola":"23555","Nota_Aclaratoria":"La estación pertenece a la Red Geodésica Nacional"}},{"type":"Feature","id":798,"geometry":{"type":"Point","coordinates":[-75.881571053458899,2.4109026326836323]},"properties":{"OBJECTID":798,"MRTAdmin":1,"MRTNomencl":"PLTA","MDANMNombr":"La Plata","DeNombre":"Huila","FMaterializacion":1669939200000,"RedGeoAc_RedNacional_MRTMaterial":"IGAC y SGC","Latitud":"2° 24' 39,249\" N","Longitud":"75° 52' 53,656\" W","AlturaElip":"1031,177","Divipola":"41396","Nota_Aclaratoria":"La estación pertenece a la Red Geodésica Nacional"}},{"type":"Feature","id":799,"geometry":{"type":"Point","coordinates":[-75.332100149887381,5.0438272168149894]},"properties":{"OBJECTID":799,"MRTAdmin":2,"MRTNomencl":"PLTR","MDANMNombr":"Manizales","DeNombre":"Caldas","FMaterializacion":1464393600000,"RedGeoAc_RedNacional_MRTMaterial":"Servicio Geológico Colombiano","Latitud":"5° 2' 37,778\" N","Longitud":"75° 19' 55,561\" W","AlturaElip":"3710,535","Divipola":"17001","Nota_Aclaratoria":"La estación pertenece a la Red Geodésica Nacional"}},{"type":"Feature","id":800,"geometry":{"type":"Point","coordinates":[-76.60120558736304,2.4431154749770219]},"properties":{"OBJECTID":800,"MRTAdmin":1,"MRTNomencl":"POPA","MDANMNombr":"Popayán","DeNombre":"Cauca","FMaterializacion":1151539200000,"RedGeoAc_RedNacional_MRTMaterial":"Instituto Geográfico Agustín Codazzi","Latitud":"2° 26' 35,216\" N","Longitud":"76° 36' 4,340\" W","AlturaElip":"1782,18","Divipola":"19001","Nota_Aclaratoria":"La estación pertenece a la Red Geodésica Nacional"}},{"type":"Feature","id":801,"geometry":{"type":"Point","coordinates":[-75.862222217081694,0.14194444770073172]},"properties":{"OBJECTID":801,"MRTAdmin":1,"MRTNomencl":"POSP","MDANMNombr":"Puerto Leguízamo","DeNombre":"Putumayo","FMaterializacion":1707004800000,"RedGeoAc_RedNacional_MRTMaterial":"IGAC y SGC","Latitud":"0° 8' 31,000\" N","Longitud":"75° 51' 44,000\" W","AlturaElip":"241","Divipola":"86573","Nota_Aclaratoria":"La estación pertenece a la Red Geodésica Nacional"}},{"type":"Feature","id":802,"geometry":{"type":"Point","coordinates":[-76.614744030788088,2.4490902312391607]},"properties":{"OBJECTID":802,"MRTAdmin":2,"MRTNomencl":"POVA","MDANMNombr":"Popayán","DeNombre":"Cauca","FMaterializacion":1228003200000,"RedGeoAc_RedNacional_MRTMaterial":"Servicio Geológico Colombiano","Latitud":"2° 26' 56,725\" N","Longitud":"76° 36' 53,079\" W","AlturaElip":"1749,381","Divipola":"19001","Nota_Aclaratoria":"La estación pertenece a la Red Geodésica Nacional"}},{"type":"Feature","id":803,"geometry":{"type":"Point","coordinates":[-73.192157577383867,2.948967234817045]},"properties":{"OBJECTID":803,"MRTAdmin":1,"MRTNomencl":"PRIC","MDANMNombr":"Puerto Rico","DeNombre":"Meta","FMaterializacion":1698192000000,"RedGeoAc_RedNacional_MRTMaterial":"IGAC y SGC","Latitud":"2° 56' 56,282\" N","Longitud":"73° 11' 31,767\" W","AlturaElip":"249,661","Divipola":"50590","Nota_Aclaratoria":"La estación pertenece a la Red Geodésica Nacional"}},{"type":"Feature","id":804,"geometry":{"type":"Point","coordinates":[-70.417724848443925,5.4819692977947883]},"properties":{"OBJECTID":804,"MRTAdmin":1,"MRTNomencl":"PRVA","MDANMNombr":"La Primavera","DeNombre":"Vichada","FMaterializacion":1649721600000,"RedGeoAc_RedNacional_MRTMaterial":"IGAC y SGC","Latitud":"5° 28' 55,089\" N","Longitud":"70° 25' 3,809\" W","AlturaElip":"116,987","Divipola":"99524","Nota_Aclaratoria":"La estación pertenece a la Red Geodésica Nacional"}},{"type":"Feature","id":805,"geometry":{"type":"Point","coordinates":[-77.277080348463713,1.2117127389376978]},"properties":{"OBJECTID":805,"MRTAdmin":1,"MRTNomencl":"PSTO","MDANMNombr":"Pasto","DeNombre":"Nariño","FMaterializacion":1121299200000,"RedGeoAc_RedNacional_MRTMaterial":"Instituto Geográfico Agustín Codazzi","Latitud":"1° 12' 42,166\" N","Longitud":"77° 16' 37,489\" W","AlturaElip":"2569,093","Divipola":"52001","Nota_Aclaratoria":"La estación pertenece a la Red Geodésica Nacional"}},{"type":"Feature","id":806,"geometry":{"type":"Point","coordinates":[-77.119645195904511,1.9727514251465494]},"properties":{"OBJECTID":806,"MRTAdmin":1,"MRTNomencl":"PTIA","MDANMNombr":"Patía","DeNombre":"Cauca","FMaterializacion":1645142400000,"RedGeoAc_RedNacional_MRTMaterial":"IGAC y SGC","Latitud":"1° 58' 21,905\" N","Longitud":"77° 7' 10,723\" W","AlturaElip":"640,617","Divipola":"19532","Nota_Aclaratoria":"La estación pertenece a la Red Geodésica Nacional"}},{"type":"Feature","id":807,"geometry":{"type":"Point","coordinates":[-75.170773667848948,1.9030170898741252]},"properties":{"OBJECTID":807,"MRTAdmin":1,"MRTNomencl":"PTRI","MDANMNombr":"Puerto Rico","DeNombre":"Caquetá","FMaterializacion":1699747200000,"RedGeoAc_RedNacional_MRTMaterial":"IGAC y SGC","Latitud":"1° 54' 10,862\" N","Longitud":"75° 10' 14,785\" W","AlturaElip":"297,403","Divipola":"18592","Nota_Aclaratoria":"La estación pertenece a la Red Geodésica Nacional"}},{"type":"Feature","id":808,"geometry":{"type":"Point","coordinates":[-73.574526621776855,10.422367953806262]},"properties":{"OBJECTID":808,"MRTAdmin":2,"MRTNomencl":"PUBE","MDANMNombr":"Pueblo Bello","DeNombre":"Cesar","FMaterializacion":1575936000000,"RedGeoAc_RedNacional_MRTMaterial":"Servicio Geológico Colombiano","Latitud":"10° 25' 20,525\" N","Longitud":"73° 34' 28,296\" W","AlturaElip":"1139,649","Divipola":"20570","Nota_Aclaratoria":"La estación pertenece a la Red Geodésica Nacional"}},{"type":"Feature","id":809,"geometry":{"type":"Point","coordinates":[-74.947041672138724,3.8607666661352309]},"properties":{"OBJECTID":809,"MRTAdmin":1,"MRTNomencl":"PUFI","MDANMNombr":"Purificación","DeNombre":"Tolima","FMaterializacion":1733875200000,"RedGeoAc_RedNacional_MRTMaterial":"Instituto Geográfico Agustín Codazzi","Latitud":"3° 51' 38,760\" N","Longitud":"74° 56' 49,350\" W","AlturaElip":"330,9467","Divipola":"73585","Nota_Aclaratoria":"La estación pertenece a la Red Geodésica Nacional"}},{"type":"Feature","id":810,"geometry":{"type":"Point","coordinates":[-67.903340839232712,3.851200349039722]},"properties":{"OBJECTID":810,"MRTAdmin":2,"MRTNomencl":"PUIN","MDANMNombr":"Inírida","DeNombre":"Guainía","FMaterializacion":1276387200000,"RedGeoAc_RedNacional_MRTMaterial":"Servicio Geológico Colombiano","Latitud":"3° 51' 4,321\" N","Longitud":"67° 54' 12,027\" W","AlturaElip":"96,019","Divipola":"94001","Nota_Aclaratoria":"La estación pertenece a la Red Geodésica Nacional"}},{"type":"Feature","id":811,"geometry":{"type":"Point","coordinates":[-73.395374999845387,3.2537350001097649]},"properties":{"OBJECTID":811,"MRTAdmin":1,"MRTNomencl":"PULE","MDANMNombr":"Puerto Lleras","DeNombre":"Meta","FMaterializacion":1607904000000,"RedGeoAc_RedNacional_MRTMaterial":"IGAC y SGC","Latitud":"3° 15' 13,446\" N","Longitud":"73° 23' 43,350\" W","AlturaElip":"254,436","Divipola":"50577","Nota_Aclaratoria":"La CORS se descontinuo y se reactivo con el identificador PULL por cambio de posición"}},{"type":"Feature","id":812,"geometry":{"type":"Point","coordinates":[-73.37478773233353,3.2691628110323596]},"properties":{"OBJECTID":812,"MRTAdmin":1,"MRTNomencl":"PULL","MDANMNombr":"Puerto Lleras","DeNombre":"Meta","FMaterializacion":1684195200000,"RedGeoAc_RedNacional_MRTMaterial":"Instituto Geográfico Agustín Codazzi","Latitud":"3° 16' 8,986\" N","Longitud":"73° 22' 29,236\" W","AlturaElip":"257,561","Divipola":"50577","Nota_Aclaratoria":"La estación pertenece a la Red Geodésica Nacional"}},{"type":"Feature","id":813,"geometry":{"type":"Point","coordinates":[-70.358413867825575,-3.7840691690973323]},"properties":{"OBJECTID":813,"MRTAdmin":1,"MRTNomencl":"PUNR","MDANMNombr":"Puerto Nariño","DeNombre":"Amazonas","FMaterializacion":1737504000000,"RedGeoAc_RedNacional_MRTMaterial":"Instituto Geográfico Agustín Codazzi","Latitud":"3° 47' 2,649\" S","Longitud":"70° 21' 30,290\" W","AlturaElip":"117,3988","Divipola":"91540","Nota_Aclaratoria":"La estación pertenece a la Red Geodésica Nacional"}},{"type":"Feature","id":814,"geometry":{"type":"Point","coordinates":[-71.100803997055905,6.2831550039634445]},"properties":{"OBJECTID":814,"MRTAdmin":1,"MRTNomencl":"PURO","MDANMNombr":"Puerto Rondón","DeNombre":"Arauca","FMaterializacion":1715644800000,"RedGeoAc_RedNacional_MRTMaterial":"IGAC y SGC","Latitud":"6° 16' 59,358\" N","Longitud":"71° 6' 2,894\" W","AlturaElip":"139,884","Divipola":"81591","Nota_Aclaratoria":"La estación pertenece a la Red Geodésica Nacional"}},{"type":"Feature","id":815,"geometry":{"type":"Point","coordinates":[-73.752649872144232,7.8141408001990502]},"properties":{"OBJECTID":815,"MRTAdmin":2,"MRTNomencl":"PWIL","MDANMNombr":"Puerto Wilches","DeNombre":"Santander","FMaterializacion":1501977600000,"RedGeoAc_RedNacional_MRTMaterial":"Servicio Geológico Colombiano","Latitud":"7° 48' 50,907\" N","Longitud":"73° 45' 9,540\" W","AlturaElip":"49,458","Divipola":"68575","Nota_Aclaratoria":"La estación pertenece a la Red Geodésica Nacional"}},{"type":"Feature","id":816,"geometry":{"type":"Point","coordinates":[-76.630167936897195,5.6854775451050612]},"properties":{"OBJECTID":816,"MRTAdmin":1,"MRTNomencl":"QBDO","MDANMNombr":"Quibdó","DeNombre":"Chocó","FMaterializacion":1726531200000,"RedGeoAc_RedNacional_MRTMaterial":"Instituto Geográfico Agustín Codazzi","Latitud":"5° 41' 7,719\" N","Longitud":"76° 37' 48,605\" W","AlturaElip":"74,498","Divipola":"27001","Nota_Aclaratoria":"La estación pertenece a la Red Geodésica Nacional"}},{"type":"Feature","id":817,"geometry":{"type":"Point","coordinates":[-76.656729893899126,5.699638375875459]},"properties":{"OBJECTID":817,"MRTAdmin":1,"MRTNomencl":"QUIB","MDANMNombr":"Quibdó","DeNombre":"Chocó","FMaterializacion":1201824000000,"RedGeoAc_RedNacional_MRTMaterial":"Instituto Geográfico Agustín Codazzi","Latitud":"5° 41' 58,698\" N","Longitud":"76° 39' 24,228\" W","AlturaElip":"57,921","Divipola":"27001","Nota_Aclaratoria":"La CORS se descontinuo y se reactivo con el identificador QBDO por cambio de posición"}},{"type":"Feature","id":818,"geometry":{"type":"Point","coordinates":[-77.290948496688941,1.393926163455504]},"properties":{"OBJECTID":818,"MRTAdmin":2,"MRTNomencl":"QUIL","MDANMNombr":"Chachagüí","DeNombre":"Nariño","FMaterializacion":1267488000000,"RedGeoAc_RedNacional_MRTMaterial":"Servicio Geológico Colombiano","Latitud":"1° 23' 38,134\" N","Longitud":"77° 17' 27,415\" W","AlturaElip":"1829,361","Divipola":"52240","Nota_Aclaratoria":"La estación pertenece a la Red Geodésica Nacional"}},{"type":"Feature","id":819,"geometry":{"type":"Point","coordinates":[-72.869701480858339,11.51321701017266]},"properties":{"OBJECTID":819,"MRTAdmin":1,"MRTNomencl":"RIOH","MDANMNombr":"Riohacha","DeNombre":"La Guajira","FMaterializacion":1130112000000,"RedGeoAc_RedNacional_MRTMaterial":"Instituto Geográfico Agustín Codazzi","Latitud":"11° 30' 47,581\" N","Longitud":"72° 52' 10,925\" W","AlturaElip":"12,487","Divipola":"44001","Nota_Aclaratoria":"La estación pertenece a la Red Geodésica Nacional"}},{"type":"Feature","id":820,"geometry":{"type":"Point","coordinates":[-70.722632768046296,5.0456462401528732]},"properties":{"OBJECTID":820,"MRTAdmin":1,"MRTNomencl":"RSLA","MDANMNombr":"Santa Rosalía","DeNombre":"Vichada","FMaterializacion":1616976000000,"RedGeoAc_RedNacional_MRTMaterial":"IGAC y SGC","Latitud":"5° 2' 44,326\" N","Longitud":"70° 43' 21,478\" W","AlturaElip":"125,716","Divipola":"99624","Nota_Aclaratoria":"La estación pertenece a la Red Geodésica Nacional"}},{"type":"Feature","id":821,"geometry":{"type":"Point","coordinates":[-71.423764309204486,3.7934014047134617]},"properties":{"OBJECTID":821,"MRTAdmin":1,"MRTNomencl":"RUBI","MDANMNombr":"Puerto Gaitán","DeNombre":"Meta","FMaterializacion":1400803200000,"RedGeoAc_RedNacional_MRTMaterial":"Instituto Geográfico Agustín Codazzi","Latitud":"3° 47' 36,245\" N","Longitud":"71° 25' 25,552\" W","AlturaElip":"207,022","Divipola":"50568","Nota_Aclaratoria":"La estación pertenece a la Red Geodésica Nacional"}},{"type":"Feature","id":822,"geometry":{"type":"Point","coordinates":[-74.187092128640316,11.225248868374207]},"properties":{"OBJECTID":822,"MRTAdmin":1,"MRTNomencl":"SAMA","MDANMNombr":"Santa Marta","DeNombre":"Magdalena","FMaterializacion":1146700800000,"RedGeoAc_RedNacional_MRTMaterial":"Instituto Geográfico Agustín Codazzi","Latitud":"11° 13' 30,896\" N","Longitud":"74° 11' 13,532\" W","AlturaElip":"22,652","Divipola":"47001","Nota_Aclaratoria":"La estación pertenece a la Red Geodésica Nacional"}},{"type":"Feature","id":823,"geometry":{"type":"Point","coordinates":[-81.71572100968352,12.580450949555551]},"properties":{"OBJECTID":823,"MRTAdmin":2,"MRTNomencl":"SAN0","MDANMNombr":"San Andrés","DeNombre":"San Andrés, Providencia y Santa Catalina","FMaterializacion":1196985600000,"RedGeoAc_RedNacional_MRTMaterial":"Servicio Geológico Colombiano","Latitud":"12° 34' 49,623\" N","Longitud":"81° 42' 56,596\" W","AlturaElip":"10,09","Divipola":"88001","Nota_Aclaratoria":"La estación pertenece a la Red Geodésica Nacional"}},{"type":"Feature","id":824,"geometry":{"type":"Point","coordinates":[-76.573037936948054,1.7056226793279969]},"properties":{"OBJECTID":824,"MRTAdmin":1,"MRTNomencl":"SARO","MDANMNombr":"Santa Rosa","DeNombre":"Cauca","FMaterializacion":1646352000000,"RedGeoAc_RedNacional_MRTMaterial":"IGAC y SGC","Latitud":"1° 42' 20,242\" N","Longitud":"76° 34' 22,937\" W","AlturaElip":"17,349","Divipola":"19701","Nota_Aclaratoria":"La estación pertenece a la Red Geodésica Nacional"}},{"type":"Feature","id":825,"geometry":{"type":"Point","coordinates":[-74.190174904229167,4.591192400122714]},"properties":{"OBJECTID":825,"MRTAdmin":6,"MRTNomencl":"SBOG","MDANMNombr":"Soacha","DeNombre":"Cundinamarca","FMaterializacion":1490918400000,"RedGeoAc_RedNacional_MRTMaterial":"SENA","Latitud":"4° 35' 28,293\" N","Longitud":"74° 11' 24,630\" W","AlturaElip":"2588,058","Divipola":"25754","Nota_Aclaratoria":"La estación pertenece a la Red Geodésica Nacional"}},{"type":"Feature","id":826,"geometry":{"type":"Point","coordinates":[-72.802285847480007,8.0834554792407243]},"properties":{"OBJECTID":826,"MRTAdmin":1,"MRTNomencl":"SDTA","MDANMNombr":"Sardinata","DeNombre":"Norte de Santander","FMaterializacion":1619568000000,"RedGeoAc_RedNacional_MRTMaterial":"Instituto Geográfico Agustín Codazzi","Latitud":"8° 5' 0,440\" N","Longitud":"72° 48' 8,229\" W","AlturaElip":"310,866","Divipola":"54720","Nota_Aclaratoria":"La estación pertenece a la Red Geodésica Nacional"}},{"type":"Feature","id":827,"geometry":{"type":"Point","coordinates":[-73.488571393496741,7.3957272175479334]},"properties":{"OBJECTID":827,"MRTAdmin":1,"MRTNomencl":"SDTO","MDANMNombr":"Sabana de Torres","DeNombre":"Santander","FMaterializacion":1733356800000,"RedGeoAc_RedNacional_MRTMaterial":"Instituto Geográfico Agustín Codazzi","Latitud":"7° 23' 44,618\" N","Longitud":"73° 29' 18,857\" W","AlturaElip":"153,2186","Divipola":"68655","Nota_Aclaratoria":"La estación pertenece a la Red Geodésica Nacional"}},{"type":"Feature","id":828,"geometry":{"type":"Point","coordinates":[-75.529124969830022,6.190870646911689]},"properties":{"OBJECTID":828,"MRTAdmin":2,"MRTNomencl":"SEL1","MDANMNombr":"Medellín","DeNombre":"Antioquia","FMaterializacion":1206057600000,"RedGeoAc_RedNacional_MRTMaterial":"Servicio Geológico Colombiano","Latitud":"6° 11' 27,134\" N","Longitud":"75° 31' 44,850\" W","AlturaElip":"2818,982","Divipola":"05001","Nota_Aclaratoria":"La estación pertenece a la Red Geodésica Nacional"}},{"type":"Feature","id":829,"geometry":{"type":"Point","coordinates":[-76.529909072843353,3.3722327430153798]},"properties":{"OBJECTID":829,"MRTAdmin":2,"MRTNomencl":"SGCC","MDANMNombr":"Santiago de Cali","DeNombre":"Valle del Cauca","FMaterializacion":1445817600000,"RedGeoAc_RedNacional_MRTMaterial":"Servicio Geológico Colombiano","Latitud":"3° 22' 20,038\" N","Longitud":"76° 31' 47,673\" W","AlturaElip":"1006,866","Divipola":"76001","Nota_Aclaratoria":"La estación pertenece a la Red Geodésica Nacional"}},{"type":"Feature","id":830,"geometry":{"type":"Point","coordinates":[-73.06432257193508,6.9921025326368742]},"properties":{"OBJECTID":830,"MRTAdmin":2,"MRTNomencl":"SGCG","MDANMNombr":"Piedecuesta","DeNombre":"Santander","FMaterializacion":1503705600000,"RedGeoAc_RedNacional_MRTMaterial":"Servicio Geológico Colombiano","Latitud":"6° 59' 31,569\" N","Longitud":"73° 3' 51,561\" W","AlturaElip":"966,74","Divipola":"68547","Nota_Aclaratoria":"La estación pertenece a la Red Geodésica Nacional"}},{"type":"Feature","id":831,"geometry":{"type":"Point","coordinates":[-76.373145425383228,2.6075718707159901]},"properties":{"OBJECTID":831,"MRTAdmin":1,"MRTNomencl":"SILP","MDANMNombr":"Silvia","DeNombre":"Cauca","FMaterializacion":1604275200000,"RedGeoAc_RedNacional_MRTMaterial":"IGAC y SGC","Latitud":"2° 36' 27,259\" N","Longitud":"76° 22' 23,324\" W","AlturaElip":"2639,104","Divipola":"19743","Nota_Aclaratoria":"La estación pertenece a la Red Geodésica Nacional"}},{"type":"Feature","id":832,"geometry":{"type":"Point","coordinates":[-75.387683092448142,9.3155922488249168]},"properties":{"OBJECTID":832,"MRTAdmin":1,"MRTNomencl":"SINC","MDANMNombr":"Sincelejo","DeNombre":"Sucre","FMaterializacion":1352246400000,"RedGeoAc_RedNacional_MRTMaterial":"Instituto Geográfico Agustín Codazzi","Latitud":"9° 18' 56,132\" N","Longitud":"75° 23' 15,659\" W","AlturaElip":"201,258","Divipola":"70001","Nota_Aclaratoria":"La estación pertenece a la Red Geodésica Nacional"}},{"type":"Feature","id":833,"geometry":{"type":"Point","coordinates":[-75.983595850832131,1.3440535547897425]},"properties":{"OBJECTID":833,"MRTAdmin":1,"MRTNomencl":"SJFR","MDANMNombr":"San José del Fragua","DeNombre":"Caquetá","FMaterializacion":1670889600000,"RedGeoAc_RedNacional_MRTMaterial":"IGAC y SGC","Latitud":"1° 20' 38,593\" N","Longitud":"75° 59' 0,945\" W","AlturaElip":"447,997","Divipola":"18610","Nota_Aclaratoria":"La estación pertenece a la Red Geodésica Nacional"}},{"type":"Feature","id":834,"geometry":{"type":"Point","coordinates":[-72.642677006085634,2.5727202693787037]},"properties":{"OBJECTID":834,"MRTAdmin":1,"MRTNomencl":"SJGU","MDANMNombr":"San José del Guaviare","DeNombre":"Guaviare","FMaterializacion":1684195200000,"RedGeoAc_RedNacional_MRTMaterial":"Instituto Geográfico Agustín Codazzi","Latitud":"2° 34' 21,793\" N","Longitud":"72° 38' 33,637\" W","AlturaElip":"204,864","Divipola":"95001","Nota_Aclaratoria":"La CORS se descontinuo y se reactivo con el identificador SJGU por cambio de posición"}},{"type":"Feature","id":835,"geometry":{"type":"Point","coordinates":[-75.074996137619905,9.9567346223707709]},